[
 {
   "lat": 32.3418,
   "long": -99.9414,
   "live": "",
   "name": "KYYW-1470-AM",
   "call": "KYYW",
   "frequency": 1470,
   "band": "AM",
   "limbaughAffiliate": 1,
   "limbaughLink": "",
   "fasAffiliate": 0,
   "fasLink": "",
   "market": ""
 },
 {
   "lat": 32.8426,
   "long": -105.9891,
   "live": "",
   "name": "KINN-1270-AM",
   "call": "KINN",
   "frequency": 1270,
   "band": "AM",
   "limbaughAffiliate": 1,
   "limbaughLink": "",
   "fasAffiliate": 0,
   "fasLink": "",
   "market": ""
 },
 {
   "lat": 31.5983,
   "long": -84.2127,
   "live": "",
   "name": "WALG-1590-AM",
   "call": "WALG",
   "frequency": 1590,
   "band": "AM",
   "limbaughAffiliate": 1,
   "limbaughLink": "",
   "fasAffiliate": 0,
   "fasLink": "",
   "market": ""
 },
 {
   "lat": 44.4698,
   "long": -123.343,
   "live": "",
   "name": "KLOO-1340-AM",
   "call": "KLOO",
   "frequency": 1340,
   "band": "AM",
   "limbaughAffiliate": 1,
   "limbaughLink": "",
   "fasAffiliate": 0,
   "fasLink": "",
   "market": ""
 },
 {
   "lat": 35.34,
   "long": -80.2108,
   "live": "",
   "name": "WSPC-1010-AM",
   "call": "WSPC",
   "frequency": 1010,
   "band": "AM",
   "limbaughAffiliate": 1,
   "limbaughLink": "",
   "fasAffiliate": 0,
   "fasLink": "",
   "market": ""
 },
 {
   "lat": 35.0441,
   "long": -106.8904,
   "live": "",
   "name": "KKOB-770-AM",
   "call": "KKOB",
   "frequency": 770,
   "band": "AM",
   "limbaughAffiliate": 1,
   "limbaughLink": "",
   "fasAffiliate": 0,
   "fasLink": "",
   "market": ""
 },
 {
   "lat": 35.0441,
   "long": -106.8904,
   "live": "",
   "name": "KKOB-770-AM",
   "call": "KKOB",
   "frequency": 770,
   "band": "AM",
   "limbaughAffiliate": 1,
   "limbaughLink": "",
   "fasAffiliate": 0,
   "fasLink": "",
   "market": ""
 },
 {
   "lat": 40.5844,
   "long": -75.6246,
   "live": "",
   "name": "WAEB-790-AM",
   "call": "WAEB",
   "frequency": 790,
   "band": "AM",
   "limbaughAffiliate": 1,
   "limbaughLink": "",
   "fasAffiliate": 0,
   "fasLink": "",
   "market": ""
 },
 {
   "lat": 40.5844,
   "long": -75.6246,
   "live": "",
   "name": "WAEB-790-AM",
   "call": "WAEB",
   "frequency": 790,
   "band": "AM",
   "limbaughAffiliate": 1,
   "limbaughLink": "",
   "fasAffiliate": 0,
   "fasLink": "",
   "market": ""
 },
 {
   "lat": 45.0657,
   "long": -83.4551,
   "live": "",
   "name": "WZTK-105.7-FM",
   "call": "WZTK",
   "frequency": 105.7,
   "band": "FM",
   "limbaughAffiliate": 1,
   "limbaughLink": "",
   "fasAffiliate": 0,
   "fasLink": "",
   "market": ""
 },
 {
   "lat": 40.5172,
   "long": -78.3662,
   "live": "",
   "name": "WRTA-1240-AM",
   "call": "WRTA",
   "frequency": 1240,
   "band": "AM",
   "limbaughAffiliate": 1,
   "limbaughLink": "",
   "fasAffiliate": 0,
   "fasLink": "",
   "market": ""
 },
 {
   "lat": 41.4384,
   "long": -120.534,
   "live": "",
   "name": "KCFJ-570-AM",
   "call": "KCFJ",
   "frequency": 570,
   "band": "AM",
   "limbaughAffiliate": 1,
   "limbaughLink": "",
   "fasAffiliate": 0,
   "fasLink": "",
   "market": ""
 },
 {
   "lat": 35.2006,
   "long": -101.821,
   "live": "",
   "name": "KGNC-710-AM",
   "call": "KGNC",
   "frequency": 710,
   "band": "AM",
   "limbaughAffiliate": 1,
   "limbaughLink": "",
   "fasAffiliate": 0,
   "fasLink": "",
   "market": ""
 },
 {
   "lat": 61.2231,
   "long": -149.8528,
   "live": "",
   "name": "KENI-650-AM",
   "call": "KENI",
   "frequency": 650,
   "band": "AM",
   "limbaughAffiliate": 1,
   "limbaughLink": "",
   "fasAffiliate": 0,
   "fasLink": "",
   "market": ""
 },
 {
   "lat": 34.4327,
   "long": -82.6272,
   "live": "",
   "name": "WAIM-1230-AM",
   "call": "WAIM",
   "frequency": 1230,
   "band": "AM",
   "limbaughAffiliate": 1,
   "limbaughLink": "",
   "fasAffiliate": 0,
   "fasLink": "",
   "market": ""
 },
 {
   "lat": 27.187,
   "long": -81.8713,
   "live": "",
   "name": "WFLN-1480-AM",
   "call": "WFLN",
   "frequency": 1480,
   "band": "AM",
   "limbaughAffiliate": 1,
   "limbaughLink": "",
   "fasAffiliate": 0,
   "fasLink": "",
   "market": ""
 },
 {
   "lat": 32.7257,
   "long": -97.3214,
   "live": "",
   "name": "WBAP-820-AM",
   "call": "WBAP",
   "frequency": 820,
   "band": "AM",
   "limbaughAffiliate": 1,
   "limbaughLink": "",
   "fasAffiliate": 0,
   "fasLink": "",
   "market": ""
 },
 {
   "lat": 35.5683,
   "long": -82.6272,
   "live": "",
   "name": "WWNC-570-AM",
   "call": "WWNC",
   "frequency": 570,
   "band": "AM",
   "limbaughAffiliate": 1,
   "limbaughLink": "",
   "fasAffiliate": 0,
   "fasLink": "",
   "market": ""
 },
 {
   "lat": 35.6346,
   "long": -83.023,
   "live": "",
   "name": "WMXF-1400-AM",
   "call": "WMXF",
   "frequency": 1400,
   "band": "AM",
   "limbaughAffiliate": 1,
   "limbaughLink": "",
   "fasAffiliate": 0,
   "fasLink": "",
   "market": ""
 },
 {
   "lat": 40.7788,
   "long": -82.4572,
   "live": "",
   "name": "WMAN-1400-AM",
   "call": "WMAN",
   "frequency": 1400,
   "band": "AM",
   "limbaughAffiliate": 1,
   "limbaughLink": "",
   "fasAffiliate": 0,
   "fasLink": "",
   "market": ""
 },
 {
   "lat": 39.3584,
   "long": -107.0539,
   "live": "",
   "name": "KNFO-106.1-FM",
   "call": "KNFO",
   "frequency": 106.1,
   "band": "FM",
   "limbaughAffiliate": 1,
   "limbaughLink": "",
   "fasAffiliate": 0,
   "fasLink": "",
   "market": ""
 },
 {
   "lat": 35.4239,
   "long": -84.6681,
   "live": "",
   "name": "WYXI-1390-AM",
   "call": "WYXI",
   "frequency": 1390,
   "band": "AM",
   "limbaughAffiliate": 1,
   "limbaughLink": "",
   "fasAffiliate": 0,
   "fasLink": "",
   "market": ""
 },
 {
   "lat": 35.4239,
   "long": -84.6681,
   "live": "",
   "name": "WYXI-1390-AM",
   "call": "WYXI",
   "frequency": 1390,
   "band": "AM",
   "limbaughAffiliate": 1,
   "limbaughLink": "",
   "fasAffiliate": 0,
   "fasLink": "",
   "market": ""
 },
 {
   "lat": 34.7675,
   "long": -87.1057,
   "live": "",
   "name": "WVNN-770-AM",
   "call": "WVNN",
   "frequency": 770,
   "band": "AM",
   "limbaughAffiliate": 1,
   "limbaughLink": "",
   "fasAffiliate": 0,
   "fasLink": "",
   "market": ""
 },
 {
   "lat": 34.7675,
   "long": -87.1057,
   "live": "",
   "name": "WVNN-770-AM",
   "call": "WVNN",
   "frequency": 770,
   "band": "AM",
   "limbaughAffiliate": 1,
   "limbaughLink": "",
   "fasAffiliate": 0,
   "fasLink": "",
   "market": ""
 },
 {
   "lat": 28.997,
   "long": -81.0563,
   "live": "",
   "name": "WSBB-1230-AM",
   "call": "WSBB",
   "frequency": 1230,
   "band": "AM",
   "limbaughAffiliate": 1,
   "limbaughLink": "",
   "fasAffiliate": 0,
   "fasLink": "",
   "market": ""
 },
 {
   "lat": 33.8477,
   "long": -84.2814,
   "live": "",
   "name": "WSB-750-AM",
   "call": "WSB",
   "frequency": 750,
   "band": "AM",
   "limbaughAffiliate": 1,
   "limbaughLink": "",
   "fasAffiliate": 0,
   "fasLink": "",
   "market": ""
 },
 {
   "lat": 32.6454,
   "long": -85.3783,
   "live": "",
   "name": "WANI-1400-AM",
   "call": "WANI",
   "frequency": 1400,
   "band": "AM",
   "limbaughAffiliate": 1,
   "limbaughLink": "",
   "fasAffiliate": 0,
   "fasLink": "",
   "market": ""
 },
 {
   "lat": 33.5242,
   "long": -82.0926,
   "live": "",
   "name": "WGAC-580-AM",
   "call": "WGAC",
   "frequency": 580,
   "band": "AM",
   "limbaughAffiliate": 1,
   "limbaughLink": "",
   "fasAffiliate": 0,
   "fasLink": "",
   "market": ""
 },
 {
   "lat": 30.2058,
   "long": -97.8002,
   "live": "",
   "name": "KLBJ-590-AM",
   "call": "KLBJ",
   "frequency": 590,
   "band": "AM",
   "limbaughAffiliate": 1,
   "limbaughLink": "",
   "fasAffiliate": 0,
   "fasLink": "",
   "market": ""
 },
 {
   "lat": 30.4998,
   "long": -97.8082,
   "live": "",
   "name": "KGSR-93.3-FM",
   "call": "KGSR",
   "frequency": 93.3,
   "band": "FM",
   "limbaughAffiliate": 1,
   "limbaughLink": "",
   "fasAffiliate": 0,
   "fasLink": "",
   "market": ""
 },
 {
   "lat": 30.2058,
   "long": -97.8002,
   "live": "",
   "name": "KLBJ-590-AM",
   "call": "KLBJ",
   "frequency": 590,
   "band": "AM",
   "limbaughAffiliate": 1,
   "limbaughLink": "",
   "fasAffiliate": 0,
   "fasLink": "",
   "market": ""
 },
 {
   "lat": 35.3832,
   "long": -119.2272,
   "live": "",
   "name": "KNZR-1560-AM",
   "call": "KNZR",
   "frequency": 1560,
   "band": "AM",
   "limbaughAffiliate": 1,
   "limbaughLink": "",
   "fasAffiliate": 0,
   "fasLink": "",
   "market": ""
 },
 {
   "lat": 35.3832,
   "long": -119.2272,
   "live": "",
   "name": "KNZR-1560-AM",
   "call": "KNZR",
   "frequency": 1560,
   "band": "AM",
   "limbaughAffiliate": 1,
   "limbaughLink": "",
   "fasAffiliate": 0,
   "fasLink": "",
   "market": ""
 },
 {
   "lat": 39.2904,
   "long": -76.6122,
   "live": "",
   "name": "WCBM-680-AM",
   "call": "WCBM",
   "frequency": 680,
   "band": "AM",
   "limbaughAffiliate": 1,
   "limbaughLink": "",
   "fasAffiliate": 0,
   "fasLink": "",
   "market": ""
 },
 {
   "lat": 36.7503,
   "long": -96.0705,
   "live": "",
   "name": "KWON-1400-AM",
   "call": "KWON",
   "frequency": 1400,
   "band": "AM",
   "limbaughAffiliate": 1,
   "limbaughLink": "",
   "fasAffiliate": 0,
   "fasLink": "",
   "market": ""
 },
 {
   "lat": 36.7503,
   "long": -96.0705,
   "live": "",
   "name": "KWON-1400-AM",
   "call": "KWON",
   "frequency": 1400,
   "band": "AM",
   "limbaughAffiliate": 1,
   "limbaughLink": "",
   "fasAffiliate": 0,
   "fasLink": "",
   "market": ""
 },
 {
   "lat": 30.4386,
   "long": -91.1703,
   "live": "",
   "name": "WYNK-FM-101.5-FM",
   "call": "WYNK-FM",
   "frequency": 101.5,
   "band": "FM",
   "limbaughAffiliate": 1,
   "limbaughLink": "",
   "fasAffiliate": 0,
   "fasLink": "",
   "market": ""
 },
 {
   "lat": 30.4386,
   "long": -91.1703,
   "live": "",
   "name": "WFMF-102.5-FM",
   "call": "WFMF",
   "frequency": 102.5,
   "band": "FM",
   "limbaughAffiliate": 1,
   "limbaughLink": "",
   "fasAffiliate": 0,
   "fasLink": "",
   "market": ""
 },
 {
   "lat": 30.4386,
   "long": -91.1703,
   "live": "",
   "name": "WJBO-1150-AM",
   "call": "WJBO",
   "frequency": 1150,
   "band": "AM",
   "limbaughAffiliate": 1,
   "limbaughLink": "",
   "fasAffiliate": 0,
   "fasLink": "",
   "market": ""
 },
 {
   "lat": 30.4386,
   "long": -91.1703,
   "live": "",
   "name": "WJBO-1150-AM",
   "call": "WJBO",
   "frequency": 1150,
   "band": "AM",
   "limbaughAffiliate": 1,
   "limbaughLink": "",
   "fasAffiliate": 0,
   "fasLink": "",
   "market": ""
 },
 {
   "lat": 42.2843,
   "long": -85.2293,
   "live": "",
   "name": "WBCK-95.3-FM",
   "call": "WBCK",
   "frequency": 95.3,
   "band": "FM",
   "limbaughAffiliate": 1,
   "limbaughLink": "",
   "fasAffiliate": 0,
   "fasLink": "",
   "market": ""
 },
 {
   "lat": 30.1406,
   "long": -94.1571,
   "live": "",
   "name": "KLVI-560-AM",
   "call": "KLVI",
   "frequency": 560,
   "band": "AM",
   "limbaughAffiliate": 1,
   "limbaughLink": "",
   "fasAffiliate": 0,
   "fasLink": "",
   "market": ""
 },
 {
   "lat": 37.8164,
   "long": -81.2329,
   "live": "",
   "name": "WJLS-560-AM",
   "call": "WJLS",
   "frequency": 560,
   "band": "AM",
   "limbaughAffiliate": 1,
   "limbaughLink": "",
   "fasAffiliate": 0,
   "fasLink": "",
   "market": ""
 },
 {
   "lat": 37.8164,
   "long": -81.2329,
   "live": "",
   "name": "WJLS-560-AM",
   "call": "WJLS",
   "frequency": 560,
   "band": "AM",
   "limbaughAffiliate": 1,
   "limbaughLink": "",
   "fasAffiliate": 0,
   "fasLink": "",
   "market": ""
 },
 {
   "lat": 39.9411,
   "long": -78.5678,
   "live": "",
   "name": "WBFD-1310-AM",
   "call": "WBFD",
   "frequency": 1310,
   "band": "AM",
   "limbaughAffiliate": 1,
   "limbaughLink": "",
   "fasAffiliate": 0,
   "fasLink": "",
   "market": ""
 },
 {
   "lat": 38.862,
   "long": -86.4711,
   "live": "",
   "name": "WBIW-1340-AM",
   "call": "WBIW",
   "frequency": 1340,
   "band": "AM",
   "limbaughAffiliate": 1,
   "limbaughLink": "",
   "fasAffiliate": 0,
   "fasLink": "",
   "market": ""
 },
 {
   "lat": 48.7395,
   "long": -122.4809,
   "live": "",
   "name": "KGMI-790-AM",
   "call": "KGMI",
   "frequency": 790,
   "band": "AM",
   "limbaughAffiliate": 1,
   "limbaughLink": "",
   "fasAffiliate": 0,
   "fasLink": "",
   "market": ""
 },
 {
   "lat": 47.5036,
   "long": -94.685,
   "live": "",
   "name": "KKBJ-1360-AM",
   "call": "KKBJ",
   "frequency": 1360,
   "band": "AM",
   "limbaughAffiliate": 1,
   "limbaughLink": "",
   "fasAffiliate": 0,
   "fasLink": "",
   "market": ""
 },
 {
   "lat": 44.0744,
   "long": -121.2574,
   "live": "",
   "name": "KBND-1110-AM",
   "call": "KBND",
   "frequency": 1110,
   "band": "AM",
   "limbaughAffiliate": 1,
   "limbaughLink": "",
   "fasAffiliate": 0,
   "fasLink": "",
   "market": ""
 },
 {
   "lat": 43.6797,
   "long": -85.5619,
   "live": "",
   "name": "WBRN-1460-AM",
   "call": "WBRN",
   "frequency": 1460,
   "band": "AM",
   "limbaughAffiliate": 1,
   "limbaughLink": "",
   "fasAffiliate": 0,
   "fasLink": "",
   "market": ""
 },
 {
   "lat": 32.1864,
   "long": -101.451,
   "live": "",
   "name": "KBST-1490-AM",
   "call": "KBST",
   "frequency": 1490,
   "band": "AM",
   "limbaughAffiliate": 1,
   "limbaughLink": "",
   "fasAffiliate": 0,
   "fasLink": "",
   "market": ""
 },
 {
   "lat": 46.1297,
   "long": -108.0929,
   "live": "",
   "name": "KCHH-95.5-FM",
   "call": "KCHH",
   "frequency": 95.5,
   "band": "FM",
   "limbaughAffiliate": 1,
   "limbaughLink": "",
   "fasAffiliate": 0,
   "fasLink": "",
   "market": ""
 },
 {
   "lat": 45.7661,
   "long": -108.5789,
   "live": "",
   "name": "KBUL-970-AM",
   "call": "KBUL",
   "frequency": 970,
   "band": "AM",
   "limbaughAffiliate": 1,
   "limbaughLink": "",
   "fasAffiliate": 0,
   "fasLink": "",
   "market": ""
 },
 {
   "lat": 42.1794,
   "long": -75.9491,
   "live": "",
   "name": "WNBF-1290-AM",
   "call": "WNBF",
   "frequency": 1290,
   "band": "AM",
   "limbaughAffiliate": 1,
   "limbaughLink": "",
   "fasAffiliate": 0,
   "fasLink": "",
   "market": ""
 },
 {
   "lat": 33.4468,
   "long": -86.7404,
   "live": "",
   "name": "WERC-960-AM",
   "call": "WERC",
   "frequency": 960,
   "band": "AM",
   "limbaughAffiliate": 1,
   "limbaughLink": "",
   "fasAffiliate": 0,
   "fasLink": "",
   "market": ""
 },
 {
   "lat": 33.4468,
   "long": -86.7404,
   "live": "",
   "name": "WERC-960-AM",
   "call": "WERC",
   "frequency": 960,
   "band": "AM",
   "limbaughAffiliate": 1,
   "limbaughLink": "",
   "fasAffiliate": 0,
   "fasLink": "",
   "market": ""
 },
 {
   "lat": 46.8159,
   "long": -100.7061,
   "live": "",
   "name": "KFYR-550-AM",
   "call": "KFYR",
   "frequency": 550,
   "band": "AM",
   "limbaughAffiliate": 1,
   "limbaughLink": "",
   "fasAffiliate": 0,
   "fasLink": "",
   "market": ""
 },
 {
   "lat": 39.079,
   "long": -86.6175,
   "live": "",
   "name": "WGCL-1370-AM",
   "call": "WGCL",
   "frequency": 1370,
   "band": "AM",
   "limbaughAffiliate": 1,
   "limbaughLink": "",
   "fasAffiliate": 0,
   "fasLink": "",
   "market": ""
 },
 {
   "lat": 37.2942,
   "long": -81.1832,
   "live": "",
   "name": "WHIS-1440-AM",
   "call": "WHIS",
   "frequency": 1440,
   "band": "AM",
   "limbaughAffiliate": 1,
   "limbaughLink": "",
   "fasAffiliate": 0,
   "fasLink": "",
   "market": ""
 },
 {
   "lat": 41.0998,
   "long": -80.6495,
   "live": "",
   "name": "WKBN-570-AM",
   "call": "WKBN",
   "frequency": 570,
   "band": "AM",
   "limbaughAffiliate": 1,
   "limbaughLink": "",
   "fasAffiliate": 0,
   "fasLink": "",
   "market": ""
 },
 {
   "lat": 33.9033,
   "long": -83.3306,
   "live": "",
   "name": "WGAU-1340-AM",
   "call": "WGAU",
   "frequency": 1340,
   "band": "AM",
   "limbaughAffiliate": 1,
   "limbaughLink": "",
   "fasAffiliate": 0,
   "fasLink": "",
   "market": ""
 },
 {
   "lat": 43.561,
   "long": -116.2135,
   "live": "",
   "name": "KBOI-670-AM",
   "call": "KBOI",
   "frequency": 670,
   "band": "AM",
   "limbaughAffiliate": 1,
   "limbaughLink": "",
   "fasAffiliate": 0,
   "fasLink": "",
   "market": ""
 },
 {
   "lat": 36.2191,
   "long": -81.6563,
   "live": "",
   "name": "WATA-1450-AM",
   "call": "WATA",
   "frequency": 1450,
   "band": "AM",
   "limbaughAffiliate": 1,
   "limbaughLink": "",
   "fasAffiliate": 0,
   "fasLink": "",
   "market": ""
 },
 {
   "lat": 37.0941,
   "long": -86.4286,
   "live": "",
   "name": "WKCT-930-AM",
   "call": "WKCT",
   "frequency": 930,
   "band": "AM",
   "limbaughAffiliate": 1,
   "limbaughLink": "",
   "fasAffiliate": 0,
   "fasLink": "",
   "market": ""
 },
 {
   "lat": 45.772,
   "long": -110.9349,
   "live": "",
   "name": "KMMS-1450-AM",
   "call": "KMMS",
   "frequency": 1450,
   "band": "AM",
   "limbaughAffiliate": 1,
   "limbaughLink": "",
   "fasAffiliate": 0,
   "fasLink": "",
   "market": ""
 },
 {
   "lat": 46.543,
   "long": -94.336,
   "live": "",
   "name": "KLKS-100.1-FM",
   "call": "KLKS",
   "frequency": 100.1,
   "band": "FM",
   "limbaughAffiliate": 1,
   "limbaughLink": "",
   "fasAffiliate": 0,
   "fasLink": "",
   "market": ""
 },
 {
   "lat": 46.3371,
   "long": -94.2731,
   "live": "",
   "name": "WWWI-1270-AM",
   "call": "WWWI",
   "frequency": 1270,
   "band": "AM",
   "limbaughAffiliate": 1,
   "limbaughLink": "",
   "fasAffiliate": 0,
   "fasLink": "",
   "market": ""
 },
 {
   "lat": 30.1991,
   "long": -96.3878,
   "live": "",
   "name": "KWHI-1280-AM",
   "call": "KWHI",
   "frequency": 1280,
   "band": "AM",
   "limbaughAffiliate": 1,
   "limbaughLink": "",
   "fasAffiliate": 0,
   "fasLink": "",
   "market": ""
 },
 {
   "lat": 31.1665,
   "long": -87.0761,
   "live": "",
   "name": "WEBJ-1240-AM",
   "call": "WEBJ",
   "frequency": 1240,
   "band": "AM",
   "limbaughAffiliate": 1,
   "limbaughLink": "",
   "fasAffiliate": 0,
   "fasLink": "",
   "market": ""
 },
 {
   "lat": 31.6393,
   "long": -98.977,
   "live": "",
   "name": "KXYL-1240-AM",
   "call": "KXYL",
   "frequency": 1240,
   "band": "AM",
   "limbaughAffiliate": 1,
   "limbaughLink": "",
   "fasAffiliate": 0,
   "fasLink": "",
   "market": ""
 },
 {
   "lat": 31.6393,
   "long": -98.977,
   "live": "",
   "name": "KXYL-1240-AM",
   "call": "KXYL",
   "frequency": 1240,
   "band": "AM",
   "limbaughAffiliate": 1,
   "limbaughLink": "",
   "fasAffiliate": 0,
   "fasLink": "",
   "market": ""
 },
 {
   "lat": 31.1823,
   "long": -81.4926,
   "live": "",
   "name": "WGIG-1440-AM",
   "call": "WGIG",
   "frequency": 1440,
   "band": "AM",
   "limbaughAffiliate": 1,
   "limbaughLink": "",
   "fasAffiliate": 0,
   "fasLink": "",
   "market": ""
 },
 {
   "lat": 30.6131,
   "long": -96.3217,
   "live": "",
   "name": "WTAW-1620-AM",
   "call": "WTAW",
   "frequency": 1620,
   "band": "AM",
   "limbaughAffiliate": 1,
   "limbaughLink": "",
   "fasAffiliate": 0,
   "fasLink": "",
   "market": ""
 },
 {
   "lat": 42.9864,
   "long": -78.7279,
   "live": "",
   "name": "WTSS-102.5-FM",
   "call": "WTSS",
   "frequency": 102.5,
   "band": "FM",
   "limbaughAffiliate": 1,
   "limbaughLink": "",
   "fasAffiliate": 0,
   "fasLink": "",
   "market": ""
 },
 {
   "lat": 42.9864,
   "long": -78.7279,
   "live": "",
   "name": "WBEN-930-AM",
   "call": "WBEN",
   "frequency": 930,
   "band": "AM",
   "limbaughAffiliate": 1,
   "limbaughLink": "",
   "fasAffiliate": 0,
   "fasLink": "",
   "market": ""
 },
 {
   "lat": 35.09,
   "long": -114.5736,
   "live": "",
   "name": "KZZZ-1490-AM",
   "call": "KZZZ",
   "frequency": 1490,
   "band": "AM",
   "limbaughAffiliate": 1,
   "limbaughLink": "",
   "fasAffiliate": 0,
   "fasLink": "",
   "market": ""
 },
 {
   "lat": 35.09,
   "long": -114.5736,
   "live": "",
   "name": "KZZZ-1490-AM",
   "call": "KZZZ",
   "frequency": 1490,
   "band": "AM",
   "limbaughAffiliate": 1,
   "limbaughLink": "",
   "fasAffiliate": 0,
   "fasLink": "",
   "market": ""
 },
 {
   "lat": 35.2481,
   "long": -113.764,
   "live": "",
   "name": "KAAA-1230-AM",
   "call": "KAAA",
   "frequency": 1230,
   "band": "AM",
   "limbaughAffiliate": 1,
   "limbaughLink": "",
   "fasAffiliate": 0,
   "fasLink": "",
   "market": ""
 },
 {
   "lat": 35.2481,
   "long": -113.764,
   "live": "",
   "name": "KAAA-1230-AM",
   "call": "KAAA",
   "frequency": 1230,
   "band": "AM",
   "limbaughAffiliate": 1,
   "limbaughLink": "",
   "fasAffiliate": 0,
   "fasLink": "",
   "market": ""
 },
 {
   "lat": 34.0396,
   "long": -118.2661,
   "live": "",
   "name": "KEIB-1150-AM",
   "call": "KEIB",
   "frequency": 1150,
   "band": "AM",
   "limbaughAffiliate": 1,
   "limbaughLink": "",
   "fasAffiliate": 0,
   "fasLink": "",
   "market": ""
 },
 {
   "lat": 46.0092,
   "long": -112.4421,
   "live": "",
   "name": "KXTL-1370-AM",
   "call": "KXTL",
   "frequency": 1370,
   "band": "AM",
   "limbaughAffiliate": 1,
   "limbaughLink": "",
   "fasAffiliate": 0,
   "fasLink": "",
   "market": ""
 },
 {
   "lat": 37.2782,
   "long": -89.5479,
   "live": "",
   "name": "KZIM-960-AM",
   "call": "KZIM",
   "frequency": 960,
   "band": "AM",
   "limbaughAffiliate": 1,
   "limbaughLink": "",
   "fasAffiliate": 0,
   "fasLink": "",
   "market": ""
 },
 {
   "lat": 37.7327,
   "long": -89.2034,
   "live": "",
   "name": "WCIL-1020-AM",
   "call": "WCIL",
   "frequency": 1020,
   "band": "AM",
   "limbaughAffiliate": 1,
   "limbaughLink": "",
   "fasAffiliate": 0,
   "fasLink": "",
   "market": ""
 },
 {
   "lat": 42.8035,
   "long": -106.2245,
   "live": "",
   "name": "KTWO-1030-AM",
   "call": "KTWO",
   "frequency": 1030,
   "band": "AM",
   "limbaughAffiliate": 1,
   "limbaughLink": "",
   "fasAffiliate": 0,
   "fasLink": "",
   "market": ""
 },
 {
   "lat": 41.9106,
   "long": -91.7142,
   "live": "",
   "name": "WMT-600-AM",
   "call": "WMT",
   "frequency": 600,
   "band": "AM",
   "limbaughAffiliate": 1,
   "limbaughLink": "",
   "fasAffiliate": 0,
   "fasLink": "",
   "market": ""
 },
 {
   "lat": 40.1319,
   "long": -88.2952,
   "live": "",
   "name": "WDWS-1400-AM",
   "call": "WDWS",
   "frequency": 1400,
   "band": "AM",
   "limbaughAffiliate": 1,
   "limbaughLink": "",
   "fasAffiliate": 0,
   "fasLink": "",
   "market": ""
 },
 {
   "lat": 38.2944,
   "long": -81.6096,
   "live": "",
   "name": "WCHS-580-AM",
   "call": "WCHS",
   "frequency": 580,
   "band": "AM",
   "limbaughAffiliate": 1,
   "limbaughLink": "",
   "fasAffiliate": 0,
   "fasLink": "",
   "market": ""
 },
 {
   "lat": 35.1232,
   "long": -80.9343,
   "live": "",
   "name": "WBT-1110-AM",
   "call": "WBT",
   "frequency": 1110,
   "band": "AM",
   "limbaughAffiliate": 1,
   "limbaughLink": "",
   "fasAffiliate": 0,
   "fasLink": "",
   "market": ""
 },
 {
   "lat": 35.1232,
   "long": -80.9343,
   "live": "",
   "name": "WBT-1110-AM",
   "call": "WBT",
   "frequency": 1110,
   "band": "AM",
   "limbaughAffiliate": 1,
   "limbaughLink": "",
   "fasAffiliate": 0,
   "fasLink": "",
   "market": ""
 },
 {
   "lat": 38.098,
   "long": -78.3966,
   "live": "",
   "name": "WCHV-1260-AM",
   "call": "WCHV",
   "frequency": 1260,
   "band": "AM",
   "limbaughAffiliate": 1,
   "limbaughLink": "",
   "fasAffiliate": 0,
   "fasLink": "",
   "market": ""
 },
 {
   "lat": 38.098,
   "long": -78.3966,
   "live": "",
   "name": "WCHV-1260-AM",
   "call": "WCHV",
   "frequency": 1260,
   "band": "AM",
   "limbaughAffiliate": 1,
   "limbaughLink": "",
   "fasAffiliate": 0,
   "fasLink": "",
   "market": ""
 },
 {
   "lat": 35.0671,
   "long": -85.2456,
   "live": "",
   "name": "WGOW-1150-AM",
   "call": "WGOW",
   "frequency": 1150,
   "band": "AM",
   "limbaughAffiliate": 1,
   "limbaughLink": "",
   "fasAffiliate": 0,
   "fasLink": "",
   "market": ""
 },
 {
   "lat": 41.9288,
   "long": -87.6315,
   "live": "",
   "name": "WLS-890-AM",
   "call": "WLS",
   "frequency": 890,
   "band": "AM",
   "limbaughAffiliate": 1,
   "limbaughLink": "",
   "fasAffiliate": 0,
   "fasLink": "",
   "market": ""
 },
 {
   "lat": 41.9288,
   "long": -87.6315,
   "live": "",
   "name": "WLS-890-AM",
   "call": "WLS",
   "frequency": 890,
   "band": "AM",
   "limbaughAffiliate": 1,
   "limbaughLink": "",
   "fasAffiliate": 0,
   "fasLink": "",
   "market": ""
 },
 {
   "lat": 39.3335,
   "long": -83.0168,
   "live": "",
   "name": "WBEX-1490-AM",
   "call": "WBEX",
   "frequency": 1490,
   "band": "AM",
   "limbaughAffiliate": 1,
   "limbaughLink": "",
   "fasAffiliate": 0,
   "fasLink": "",
   "market": ""
 },
 {
   "lat": 39.3335,
   "long": -83.0168,
   "live": "",
   "name": "WBEX-1490-AM",
   "call": "WBEX",
   "frequency": 1490,
   "band": "AM",
   "limbaughAffiliate": 1,
   "limbaughLink": "",
   "fasAffiliate": 0,
   "fasLink": "",
   "market": ""
 },
 {
   "lat": 34.7251,
   "long": -83.5108,
   "live": "",
   "name": "WCHM-1490-AM",
   "call": "WCHM",
   "frequency": 1490,
   "band": "AM",
   "limbaughAffiliate": 1,
   "limbaughLink": "",
   "fasAffiliate": 0,
   "fasLink": "",
   "market": ""
 },
 {
   "lat": 35.0978,
   "long": -84.9115,
   "live": "",
   "name": "WBAC-1340-AM",
   "call": "WBAC",
   "frequency": 1340,
   "band": "AM",
   "limbaughAffiliate": 1,
   "limbaughLink": "",
   "fasAffiliate": 0,
   "fasLink": "",
   "market": ""
 },
 {
   "lat": 39.3508,
   "long": -101.7102,
   "live": "",
   "name": "KLOE-730-AM",
   "call": "KLOE",
   "frequency": 730,
   "band": "AM",
   "limbaughAffiliate": 1,
   "limbaughLink": "",
   "fasAffiliate": 0,
   "fasLink": "",
   "market": ""
 },
 {
   "lat": 44.4759,
   "long": -73.2121,
   "live": "",
   "name": "WVMT-620-AM",
   "call": "WVMT",
   "frequency": 620,
   "band": "AM",
   "limbaughAffiliate": 1,
   "limbaughLink": "",
   "fasAffiliate": 0,
   "fasLink": "",
   "market": ""
 },
 {
   "lat": 38.8609,
   "long": -104.8734,
   "live": "",
   "name": "KVOR-740-AM",
   "call": "KVOR",
   "frequency": 740,
   "band": "AM",
   "limbaughAffiliate": 1,
   "limbaughLink": "",
   "fasAffiliate": 0,
   "fasLink": "",
   "market": ""
 },
 {
   "lat": 39.0437,
   "long": -92.2714,
   "live": "",
   "name": "KFRU-1400-AM",
   "call": "KFRU",
   "frequency": 1400,
   "band": "AM",
   "limbaughAffiliate": 1,
   "limbaughLink": "",
   "fasAffiliate": 0,
   "fasLink": "",
   "market": ""
 },
 {
   "lat": 31.217,
   "long": -89.811,
   "live": "",
   "name": "WCJU-1450-AM",
   "call": "WCJU",
   "frequency": 1450,
   "band": "AM",
   "limbaughAffiliate": 1,
   "limbaughLink": "",
   "fasAffiliate": 0,
   "fasLink": "",
   "market": ""
 },
 {
   "lat": 31.217,
   "long": -89.811,
   "live": "",
   "name": "WCJU-1450-AM",
   "call": "WCJU",
   "frequency": 1450,
   "band": "AM",
   "limbaughAffiliate": 1,
   "limbaughLink": "",
   "fasAffiliate": 0,
   "fasLink": "",
   "market": ""
 },
 {
   "lat": 34.0988,
   "long": -81.0612,
   "live": "",
   "name": "WVOC-560-AM",
   "call": "WVOC",
   "frequency": 560,
   "band": "AM",
   "limbaughAffiliate": 1,
   "limbaughLink": "",
   "fasAffiliate": 0,
   "fasLink": "",
   "market": ""
 },
 {
   "lat": 35.6489,
   "long": -86.9958,
   "live": "",
   "name": "WKRM-1340-AM",
   "call": "WKRM",
   "frequency": 1340,
   "band": "AM",
   "limbaughAffiliate": 1,
   "limbaughLink": "",
   "fasAffiliate": 0,
   "fasLink": "",
   "market": ""
 },
 {
   "lat": 39.722,
   "long": -82.9215,
   "live": "",
   "name": "WODC-93.3-FM",
   "call": "WODC",
   "frequency": 93.3,
   "band": "FM",
   "limbaughAffiliate": 1,
   "limbaughLink": "",
   "fasAffiliate": 0,
   "fasLink": "",
   "market": ""
 },
 {
   "lat": 39.8928,
   "long": -82.9588,
   "live": "",
   "name": "WTVN-610-AM",
   "call": "WTVN",
   "frequency": 610,
   "band": "AM",
   "limbaughAffiliate": 1,
   "limbaughLink": "",
   "fasAffiliate": 0,
   "fasLink": "",
   "market": ""
 },
 {
   "lat": 32.4647,
   "long": -84.9884,
   "live": "",
   "name": "WDAK-540-AM",
   "call": "WDAK",
   "frequency": 540,
   "band": "AM",
   "limbaughAffiliate": 1,
   "limbaughLink": "",
   "fasAffiliate": 0,
   "fasLink": "",
   "market": ""
 },
 {
   "lat": 39.2359,
   "long": -85.836,
   "live": "",
   "name": "WCSI-1010-AM",
   "call": "WCSI",
   "frequency": 1010,
   "band": "AM",
   "limbaughAffiliate": 1,
   "limbaughLink": "",
   "fasAffiliate": 0,
   "fasLink": "",
   "market": ""
 },
 {
   "lat": 31.8892,
   "long": -98.6385,
   "live": "",
   "name": "KCOM-1550-AM",
   "call": "KCOM",
   "frequency": 1550,
   "band": "AM",
   "limbaughAffiliate": 1,
   "limbaughLink": "",
   "fasAffiliate": 0,
   "fasLink": "",
   "market": ""
 },
 {
   "lat": 36.192,
   "long": -85.4559,
   "live": "",
   "name": "WHUB-1400-AM",
   "call": "WHUB",
   "frequency": 1400,
   "band": "AM",
   "limbaughAffiliate": 1,
   "limbaughLink": "",
   "fasAffiliate": 0,
   "fasLink": "",
   "market": ""
 },
 {
   "lat": 43.2049,
   "long": -124.122,
   "live": "",
   "name": "KWRO-630-AM",
   "call": "KWRO",
   "frequency": 630,
   "band": "AM",
   "limbaughAffiliate": 1,
   "limbaughLink": "",
   "fasAffiliate": 0,
   "fasLink": "",
   "market": ""
 },
 {
   "lat": 27.7479,
   "long": -97.4435,
   "live": "",
   "name": "KKTX-1360-AM",
   "call": "KKTX",
   "frequency": 1360,
   "band": "AM",
   "limbaughAffiliate": 1,
   "limbaughLink": "",
   "fasAffiliate": 0,
   "fasLink": "",
   "market": ""
 },
 {
   "lat": 37.3363,
   "long": -108.7271,
   "live": "",
   "name": "KVFC-740-AM",
   "call": "KVFC",
   "frequency": 740,
   "band": "AM",
   "limbaughAffiliate": 1,
   "limbaughLink": "",
   "fasAffiliate": 0,
   "fasLink": "",
   "market": ""
 },
 {
   "lat": 37.3363,
   "long": -108.7271,
   "live": "",
   "name": "KVFC-740-AM",
   "call": "KVFC",
   "frequency": 740,
   "band": "AM",
   "limbaughAffiliate": 1,
   "limbaughLink": "",
   "fasAffiliate": 0,
   "fasLink": "",
   "market": ""
 },
 {
   "lat": 41.6731,
   "long": -123.9455,
   "live": "",
   "name": "KPOD-FM-97.9-FM",
   "call": "KPOD-FM",
   "frequency": 97.9,
   "band": "FM",
   "limbaughAffiliate": 1,
   "limbaughLink": "",
   "fasAffiliate": 0,
   "fasLink": "",
   "market": ""
 },
 {
   "lat": 35.949,
   "long": -85.0269,
   "live": "",
   "name": "WAEW-1330-AM",
   "call": "WAEW",
   "frequency": 1330,
   "band": "AM",
   "limbaughAffiliate": 1,
   "limbaughLink": "",
   "fasAffiliate": 0,
   "fasLink": "",
   "market": ""
 },
 {
   "lat": 34.1543,
   "long": -86.7474,
   "live": "",
   "name": "WKUL-92.1-FM",
   "call": "WKUL",
   "frequency": 92.1,
   "band": "FM",
   "limbaughAffiliate": 1,
   "limbaughLink": "",
   "fasAffiliate": 0,
   "fasLink": "",
   "market": ""
 },
 {
   "lat": 40.0483,
   "long": -85.6855,
   "live": "",
   "name": "WHBU-1240-AM",
   "call": "WHBU",
   "frequency": 1240,
   "band": "AM",
   "limbaughAffiliate": 1,
   "limbaughLink": "",
   "fasAffiliate": 0,
   "fasLink": "",
   "market": ""
 },
 {
   "lat": 40.0483,
   "long": -85.6855,
   "live": "",
   "name": "WHBU-1240-AM",
   "call": "WHBU",
   "frequency": 1240,
   "band": "AM",
   "limbaughAffiliate": 1,
   "limbaughLink": "",
   "fasAffiliate": 0,
   "fasLink": "",
   "market": ""
 },
 {
   "lat": 32.7257,
   "long": -97.3214,
   "live": "",
   "name": "KPLX-99.5-FM",
   "call": "KPLX",
   "frequency": 99.5,
   "band": "FM",
   "limbaughAffiliate": 1,
   "limbaughLink": "",
   "fasAffiliate": 0,
   "fasLink": "",
   "market": ""
 },
 {
   "lat": 34.7982,
   "long": -84.9082,
   "live": "",
   "name": "WBLJ-1230-AM",
   "call": "WBLJ",
   "frequency": 1230,
   "band": "AM",
   "limbaughAffiliate": 1,
   "limbaughLink": "",
   "fasAffiliate": 0,
   "fasLink": "",
   "market": ""
 },
 {
   "lat": 41.3781,
   "long": -73.4691,
   "live": "",
   "name": "WLAD-800-AM",
   "call": "WLAD",
   "frequency": 800,
   "band": "AM",
   "limbaughAffiliate": 1,
   "limbaughLink": "",
   "fasAffiliate": 0,
   "fasLink": "",
   "market": ""
 },
 {
   "lat": 41.3781,
   "long": -73.4691,
   "live": "",
   "name": "WLAD-800-AM",
   "call": "WLAD",
   "frequency": 800,
   "band": "AM",
   "limbaughAffiliate": 1,
   "limbaughLink": "",
   "fasAffiliate": 0,
   "fasLink": "",
   "market": ""
 },
 {
   "lat": 40.153,
   "long": -87.6459,
   "live": "",
   "name": "WDAN-1490-AM",
   "call": "WDAN",
   "frequency": 1490,
   "band": "AM",
   "limbaughAffiliate": 1,
   "limbaughLink": "",
   "fasAffiliate": 0,
   "fasLink": "",
   "market": ""
 },
 {
   "lat": 41.5798,
   "long": -90.625,
   "live": "",
   "name": "WOC-1420-AM",
   "call": "WOC",
   "frequency": 1420,
   "band": "AM",
   "limbaughAffiliate": 1,
   "limbaughLink": "",
   "fasAffiliate": 0,
   "fasLink": "",
   "market": ""
 },
 {
   "lat": 39.833,
   "long": -84.2177,
   "live": "",
   "name": "WHIO-1290-AM",
   "call": "WHIO",
   "frequency": 1290,
   "band": "AM",
   "limbaughAffiliate": 1,
   "limbaughLink": "",
   "fasAffiliate": 0,
   "fasLink": "",
   "market": ""
 },
 {
   "lat": 39.833,
   "long": -84.2177,
   "live": "",
   "name": "WHIO-1290-AM",
   "call": "WHIO",
   "frequency": 1290,
   "band": "AM",
   "limbaughAffiliate": 1,
   "limbaughLink": "",
   "fasAffiliate": 0,
   "fasLink": "",
   "market": ""
 },
 {
   "lat": 29.1622,
   "long": -81.0075,
   "live": "",
   "name": "WNDB-1150-AM",
   "call": "WNDB",
   "frequency": 1150,
   "band": "AM",
   "limbaughAffiliate": 1,
   "limbaughLink": "",
   "fasAffiliate": 0,
   "fasLink": "",
   "market": ""
 },
 {
   "lat": 39.9155,
   "long": -88.8918,
   "live": "",
   "name": "WSOY-1340-AM",
   "call": "WSOY",
   "frequency": 1340,
   "band": "AM",
   "limbaughAffiliate": 1,
   "limbaughLink": "",
   "fasAffiliate": 0,
   "fasLink": "",
   "market": ""
 },
 {
   "lat": 41.3606,
   "long": -84.3701,
   "live": "",
   "name": "WONW-1280-AM",
   "call": "WONW",
   "frequency": 1280,
   "band": "AM",
   "limbaughAffiliate": 1,
   "limbaughLink": "",
   "fasAffiliate": 0,
   "fasLink": "",
   "market": ""
 },
 {
   "lat": 39.7525,
   "long": -104.9995,
   "live": "",
   "name": "KPTT-95.7-FM",
   "call": "KPTT",
   "frequency": 95.7,
   "band": "FM",
   "limbaughAffiliate": 1,
   "limbaughLink": "",
   "fasAffiliate": 0,
   "fasLink": "",
   "market": ""
 },
 {
   "lat": 40.0878,
   "long": -105.3735,
   "live": "",
   "name": "KBCO-97.3-FM",
   "call": "KBCO",
   "frequency": 97.3,
   "band": "FM",
   "limbaughAffiliate": 1,
   "limbaughLink": "",
   "fasAffiliate": 0,
   "fasLink": "",
   "market": ""
 },
 {
   "lat": 40.0878,
   "long": -105.3735,
   "live": "",
   "name": "KBCO-97.3-FM",
   "call": "KBCO",
   "frequency": 97.3,
   "band": "FM",
   "limbaughAffiliate": 1,
   "limbaughLink": "",
   "fasAffiliate": 0,
   "fasLink": "",
   "market": ""
 },
 {
   "lat": 41.5839,
   "long": -93.6289,
   "live": "",
   "name": "WHO-1040-AM",
   "call": "WHO",
   "frequency": 1040,
   "band": "AM",
   "limbaughAffiliate": 1,
   "limbaughLink": "",
   "fasAffiliate": 0,
   "fasLink": "",
   "market": ""
 },
 {
   "lat": 42.3679,
   "long": -83.1386,
   "live": "",
   "name": "WJR-760-AM",
   "call": "WJR",
   "frequency": 760,
   "band": "AM",
   "limbaughAffiliate": 1,
   "limbaughLink": "",
   "fasAffiliate": 0,
   "fasLink": "",
   "market": ""
 },
 {
   "lat": 37.802,
   "long": -99.9982,
   "live": "",
   "name": "KGNO-1370-AM",
   "call": "KGNO",
   "frequency": 1370,
   "band": "AM",
   "limbaughAffiliate": 1,
   "limbaughLink": "",
   "fasAffiliate": 0,
   "fasLink": "",
   "market": ""
 },
 {
   "lat": 31.3497,
   "long": -85.6846,
   "live": "",
   "name": "WDBT-103.9-FM",
   "call": "WDBT",
   "frequency": 103.9,
   "band": "FM",
   "limbaughAffiliate": 1,
   "limbaughLink": "",
   "fasAffiliate": 0,
   "fasLink": "",
   "market": ""
 },
 {
   "lat": 39.1817,
   "long": -75.5971,
   "live": "",
   "name": "WDOV-1410-AM",
   "call": "WDOV",
   "frequency": 1410,
   "band": "AM",
   "limbaughAffiliate": 1,
   "limbaughLink": "",
   "fasAffiliate": 0,
   "fasLink": "",
   "market": ""
 },
 {
   "lat": 41.1172,
   "long": -78.6861,
   "live": "",
   "name": "WCED-1420-AM",
   "call": "WCED",
   "frequency": 1420,
   "band": "AM",
   "limbaughAffiliate": 1,
   "limbaughLink": "",
   "fasAffiliate": 0,
   "fasLink": "",
   "market": ""
 },
 {
   "lat": 41.1172,
   "long": -78.6861,
   "live": "",
   "name": "WCED-1420-AM",
   "call": "WCED",
   "frequency": 1420,
   "band": "AM",
   "limbaughAffiliate": 1,
   "limbaughLink": "",
   "fasAffiliate": 0,
   "fasLink": "",
   "market": ""
 },
 {
   "lat": 41.1172,
   "long": -78.6861,
   "live": "",
   "name": "WCED-1420-AM",
   "call": "WCED",
   "frequency": 1420,
   "band": "AM",
   "limbaughAffiliate": 1,
   "limbaughLink": "",
   "fasAffiliate": 0,
   "fasLink": "",
   "market": ""
 },
 {
   "lat": 42.5507,
   "long": -90.6931,
   "live": "",
   "name": "WDBQ-1490-AM",
   "call": "WDBQ",
   "frequency": 1490,
   "band": "AM",
   "limbaughAffiliate": 1,
   "limbaughLink": "",
   "fasAffiliate": 0,
   "fasLink": "",
   "market": ""
 },
 {
   "lat": 46.5754,
   "long": -92.1378,
   "live": "",
   "name": "WDSM-710-AM",
   "call": "WDSM",
   "frequency": 710,
   "band": "AM",
   "limbaughAffiliate": 1,
   "limbaughLink": "",
   "fasAffiliate": 0,
   "fasLink": "",
   "market": ""
 },
 {
   "lat": 37.4509,
   "long": -107.8488,
   "live": "",
   "name": "KDGO-1240-AM",
   "call": "KDGO",
   "frequency": 1240,
   "band": "AM",
   "limbaughAffiliate": 1,
   "limbaughLink": "",
   "fasAffiliate": 0,
   "fasLink": "",
   "market": ""
 },
 {
   "lat": 37.4509,
   "long": -107.8488,
   "live": "",
   "name": "KDGO-1240-AM",
   "call": "KDGO",
   "frequency": 1240,
   "band": "AM",
   "limbaughAffiliate": 1,
   "limbaughLink": "",
   "fasAffiliate": 0,
   "fasLink": "",
   "market": ""
 },
 {
   "lat": 45.9203,
   "long": -89.2186,
   "live": "",
   "name": "WERL-950-AM",
   "call": "WERL",
   "frequency": 950,
   "band": "AM",
   "limbaughAffiliate": 1,
   "limbaughLink": "",
   "fasAffiliate": 0,
   "fasLink": "",
   "market": ""
 },
 {
   "lat": 46.5632,
   "long": -90.9065,
   "live": "",
   "name": "WATW-1400-AM",
   "call": "WATW",
   "frequency": 1400,
   "band": "AM",
   "limbaughAffiliate": 1,
   "limbaughLink": "",
   "fasAffiliate": 0,
   "fasLink": "",
   "market": ""
 },
 {
   "lat": 44.8471,
   "long": -92.0009,
   "live": "",
   "name": "WMEQ-880-AM",
   "call": "WMEQ",
   "frequency": 880,
   "band": "AM",
   "limbaughAffiliate": 1,
   "limbaughLink": "",
   "fasAffiliate": 0,
   "fasLink": "",
   "market": ""
 },
 {
   "lat": 44.8471,
   "long": -92.0009,
   "live": "",
   "name": "WMEQ-880-AM",
   "call": "WMEQ",
   "frequency": 880,
   "band": "AM",
   "limbaughAffiliate": 1,
   "limbaughLink": "",
   "fasAffiliate": 0,
   "fasLink": "",
   "market": ""
 },
 {
   "lat": 39.1191,
   "long": -88.5702,
   "live": "",
   "name": "WCRA-1090-AM",
   "call": "WCRA",
   "frequency": 1090,
   "band": "AM",
   "limbaughAffiliate": 1,
   "limbaughLink": "",
   "fasAffiliate": 0,
   "fasLink": "",
   "market": ""
 },
 {
   "lat": 39.1191,
   "long": -88.5702,
   "live": "",
   "name": "WCRA-1090-AM",
   "call": "WCRA",
   "frequency": 1090,
   "band": "AM",
   "limbaughAffiliate": 1,
   "limbaughLink": "",
   "fasAffiliate": 0,
   "fasLink": "",
   "market": ""
 },
 {
   "lat": 39.1191,
   "long": -88.5702,
   "live": "",
   "name": "WCRA-1090-AM",
   "call": "WCRA",
   "frequency": 1090,
   "band": "AM",
   "limbaughAffiliate": 1,
   "limbaughLink": "",
   "fasAffiliate": 0,
   "fasLink": "",
   "market": ""
 },
 {
   "lat": 33.1929,
   "long": -92.6434,
   "live": "",
   "name": "KELD-1400-AM",
   "call": "KELD",
   "frequency": 1400,
   "band": "AM",
   "limbaughAffiliate": 1,
   "limbaughLink": "",
   "fasAffiliate": 0,
   "fasLink": "",
   "market": ""
 },
 {
   "lat": 33.1929,
   "long": -92.6434,
   "live": "",
   "name": "KELD-1400-AM",
   "call": "KELD",
   "frequency": 1400,
   "band": "AM",
   "limbaughAffiliate": 1,
   "limbaughLink": "",
   "fasAffiliate": 0,
   "fasLink": "",
   "market": ""
 },
 {
   "lat": 31.7958,
   "long": -106.3762,
   "live": "",
   "name": "KTSM-690-AM",
   "call": "KTSM",
   "frequency": 690,
   "band": "AM",
   "limbaughAffiliate": 1,
   "limbaughLink": "",
   "fasAffiliate": 0,
   "fasLink": "",
   "market": ""
 },
 {
   "lat": 40.9527,
   "long": -115.7906,
   "live": "",
   "name": "KZBI-94.5-FM",
   "call": "KZBI",
   "frequency": 94.5,
   "band": "FM",
   "limbaughAffiliate": 1,
   "limbaughLink": "",
   "fasAffiliate": 0,
   "fasLink": "",
   "market": ""
 },
 {
   "lat": 46.979,
   "long": -120.4703,
   "live": "",
   "name": "KXLE-1240-AM",
   "call": "KXLE",
   "frequency": 1240,
   "band": "AM",
   "limbaughAffiliate": 1,
   "limbaughLink": "",
   "fasAffiliate": 0,
   "fasLink": "",
   "market": ""
 },
 {
   "lat": 42.2125,
   "long": -76.7868,
   "live": "",
   "name": "WWLZ-820-AM",
   "call": "WWLZ",
   "frequency": 820,
   "band": "AM",
   "limbaughAffiliate": 1,
   "limbaughLink": "",
   "fasAffiliate": 0,
   "fasLink": "",
   "market": ""
 },
 {
   "lat": 36.4486,
   "long": -97.7697,
   "live": "",
   "name": "KGWA-960-AM",
   "call": "KGWA",
   "frequency": 960,
   "band": "AM",
   "limbaughAffiliate": 1,
   "limbaughLink": "",
   "fasAffiliate": 0,
   "fasLink": "",
   "market": ""
 },
 {
   "lat": 45.6725,
   "long": -117.0373,
   "live": "",
   "name": "KWVR-1340-AM",
   "call": "KWVR",
   "frequency": 1340,
   "band": "AM",
   "limbaughAffiliate": 1,
   "limbaughLink": "",
   "fasAffiliate": 0,
   "fasLink": "",
   "market": ""
 },
 {
   "lat": 45.7566,
   "long": -87.1571,
   "live": "",
   "name": "WCHT-600-AM",
   "call": "WCHT",
   "frequency": 600,
   "band": "AM",
   "limbaughAffiliate": 1,
   "limbaughLink": "",
   "fasAffiliate": 0,
   "fasLink": "",
   "market": ""
 },
 {
   "lat": 43.3779,
   "long": -94.7973,
   "live": "",
   "name": "KILR-1070-AM",
   "call": "KILR",
   "frequency": 1070,
   "band": "AM",
   "limbaughAffiliate": 1,
   "limbaughLink": "",
   "fasAffiliate": 0,
   "fasLink": "",
   "market": ""
 },
 {
   "lat": 43.3779,
   "long": -94.7973,
   "live": "",
   "name": "KILR-1070-AM",
   "call": "KILR",
   "frequency": 1070,
   "band": "AM",
   "limbaughAffiliate": 1,
   "limbaughLink": "",
   "fasAffiliate": 0,
   "fasLink": "",
   "market": ""
 },
 {
   "lat": 40.9653,
   "long": -123.8586,
   "live": "",
   "name": "KINS-FM-106.3-FM",
   "call": "KINS-FM",
   "frequency": 106.3,
   "band": "FM",
   "limbaughAffiliate": 1,
   "limbaughLink": "",
   "fasAffiliate": 0,
   "fasLink": "",
   "market": ""
 },
 {
   "lat": 37.9708,
   "long": -87.4897,
   "live": "",
   "name": "WGBF-1280-AM",
   "call": "WGBF",
   "frequency": 1280,
   "band": "AM",
   "limbaughAffiliate": 1,
   "limbaughLink": "",
   "fasAffiliate": 0,
   "fasLink": "",
   "market": ""
 },
 {
   "lat": 38.3619,
   "long": -88.3596,
   "live": "",
   "name": "WFIW-1390-AM",
   "call": "WFIW",
   "frequency": 1390,
   "band": "AM",
   "limbaughAffiliate": 1,
   "limbaughLink": "",
   "fasAffiliate": 0,
   "fasLink": "",
   "market": ""
 },
 {
   "lat": 46.8838,
   "long": -96.6987,
   "live": "",
   "name": "WZFG-1100-AM",
   "call": "WZFG",
   "frequency": 1100,
   "band": "AM",
   "limbaughAffiliate": 1,
   "limbaughLink": "",
   "fasAffiliate": 0,
   "fasLink": "",
   "market": ""
 },
 {
   "lat": 41.7686,
   "long": -72.6745,
   "live": "",
   "name": "WTIC-1080-AM",
   "call": "WTIC",
   "frequency": 1080,
   "band": "AM",
   "limbaughAffiliate": 1,
   "limbaughLink": "",
   "fasAffiliate": 0,
   "fasLink": "",
   "market": ""
 },
 {
   "lat": 36.4714,
   "long": -108.251,
   "live": "",
   "name": "KENN-1390-AM",
   "call": "KENN",
   "frequency": 1390,
   "band": "AM",
   "limbaughAffiliate": 1,
   "limbaughLink": "",
   "fasAffiliate": 0,
   "fasLink": "",
   "market": ""
 },
 {
   "lat": 35.0785,
   "long": -78.9336,
   "live": "",
   "name": "WFNC-640-AM",
   "call": "WFNC",
   "frequency": 640,
   "band": "AM",
   "limbaughAffiliate": 1,
   "limbaughLink": "",
   "fasAffiliate": 0,
   "fasLink": "",
   "market": ""
 },
 {
   "lat": 36.0364,
   "long": -94.268,
   "live": "",
   "name": "KFAY-1030-AM",
   "call": "KFAY",
   "frequency": 1030,
   "band": "AM",
   "limbaughAffiliate": 1,
   "limbaughLink": "",
   "fasAffiliate": 0,
   "fasLink": "",
   "market": ""
 },
 {
   "lat": 41.0221,
   "long": -83.6789,
   "live": "",
   "name": "WFIN-1330-AM",
   "call": "WFIN",
   "frequency": 1330,
   "band": "AM",
   "limbaughAffiliate": 1,
   "limbaughLink": "",
   "fasAffiliate": 0,
   "fasLink": "",
   "market": ""
 },
 {
   "lat": 43.0138,
   "long": -83.6883,
   "live": "",
   "name": "WWCK-1570-AM",
   "call": "WWCK",
   "frequency": 1570,
   "band": "AM",
   "limbaughAffiliate": 1,
   "limbaughLink": "",
   "fasAffiliate": 0,
   "fasLink": "",
   "market": ""
 },
 {
   "lat": 42.4488,
   "long": -94.2254,
   "live": "",
   "name": "KVFD-1400-AM",
   "call": "KVFD",
   "frequency": 1400,
   "band": "AM",
   "limbaughAffiliate": 1,
   "limbaughLink": "",
   "fasAffiliate": 0,
   "fasLink": "",
   "market": ""
 },
 {
   "lat": 26.5299,
   "long": -81.6907,
   "live": "",
   "name": "WFSX-1240-AM",
   "call": "WFSX",
   "frequency": 1240,
   "band": "AM",
   "limbaughAffiliate": 1,
   "limbaughLink": "",
   "fasAffiliate": 0,
   "fasLink": "",
   "market": ""
 },
 {
   "lat": 26.5299,
   "long": -81.6907,
   "live": "",
   "name": "WFSX-1240-AM",
   "call": "WFSX",
   "frequency": 1240,
   "band": "AM",
   "limbaughAffiliate": 1,
   "limbaughLink": "",
   "fasAffiliate": 0,
   "fasLink": "",
   "market": ""
 },
 {
   "lat": 27.2498,
   "long": -80.3797,
   "live": "",
   "name": "WPSL-1590-AM",
   "call": "WPSL",
   "frequency": 1590,
   "band": "AM",
   "limbaughAffiliate": 1,
   "limbaughLink": "",
   "fasAffiliate": 0,
   "fasLink": "",
   "market": ""
 },
 {
   "lat": 30.4218,
   "long": -86.6298,
   "live": "",
   "name": "WFTW-1260-AM",
   "call": "WFTW",
   "frequency": 1260,
   "band": "AM",
   "limbaughAffiliate": 1,
   "limbaughLink": "",
   "fasAffiliate": 0,
   "fasLink": "",
   "market": ""
 },
 {
   "lat": 41.1005,
   "long": -85.182,
   "live": "",
   "name": "WOWO-1190-AM",
   "call": "WOWO",
   "frequency": 1190,
   "band": "AM",
   "limbaughAffiliate": 1,
   "limbaughLink": "",
   "fasAffiliate": 0,
   "fasLink": "",
   "market": ""
 },
 {
   "lat": 41.1005,
   "long": -85.182,
   "live": "",
   "name": "WOWO-1190-AM",
   "call": "WOWO",
   "frequency": 1190,
   "band": "AM",
   "limbaughAffiliate": 1,
   "limbaughLink": "",
   "fasAffiliate": 0,
   "fasLink": "",
   "market": ""
 },
 {
   "lat": 41.4523,
   "long": -79.8608,
   "live": "",
   "name": "WFRA-1450-AM",
   "call": "WFRA",
   "frequency": 1450,
   "band": "AM",
   "limbaughAffiliate": 1,
   "limbaughLink": "",
   "fasAffiliate": 0,
   "fasLink": "",
   "market": ""
 },
 {
   "lat": 41.7038,
   "long": -73.9218,
   "live": "",
   "name": "WKIP-1450-AM",
   "call": "WKIP",
   "frequency": 1450,
   "band": "AM",
   "limbaughAffiliate": 1,
   "limbaughLink": "",
   "fasAffiliate": 0,
   "fasLink": "",
   "market": ""
 },
 {
   "lat": 39.3427,
   "long": -77.3782,
   "live": "",
   "name": "WFMD-930-AM",
   "call": "WFMD",
   "frequency": 930,
   "band": "AM",
   "limbaughAffiliate": 1,
   "limbaughLink": "",
   "fasAffiliate": 0,
   "fasLink": "",
   "market": ""
 },
 {
   "lat": 38.3205,
   "long": -77.4113,
   "live": "",
   "name": "WNTX-1350-AM",
   "call": "WNTX",
   "frequency": 1350,
   "band": "AM",
   "limbaughAffiliate": 1,
   "limbaughLink": "",
   "fasAffiliate": 0,
   "fasLink": "",
   "market": ""
 },
 {
   "lat": 38.3205,
   "long": -77.4113,
   "live": "",
   "name": "WNTX-1350-AM",
   "call": "WNTX",
   "frequency": 1350,
   "band": "AM",
   "limbaughAffiliate": 1,
   "limbaughLink": "",
   "fasAffiliate": 0,
   "fasLink": "",
   "market": ""
 },
 {
   "lat": 39.6408,
   "long": -78.968,
   "live": "",
   "name": "WFRB-560-AM",
   "call": "WFRB",
   "frequency": 560,
   "band": "AM",
   "limbaughAffiliate": 1,
   "limbaughLink": "",
   "fasAffiliate": 0,
   "fasLink": "",
   "market": ""
 },
 {
   "lat": 34.0379,
   "long": -85.8105,
   "live": "",
   "name": "WAAX-570-AM",
   "call": "WAAX",
   "frequency": 570,
   "band": "AM",
   "limbaughAffiliate": 1,
   "limbaughLink": "",
   "fasAffiliate": 0,
   "fasLink": "",
   "market": ""
 },
 {
   "lat": 34.3138,
   "long": -83.8095,
   "live": "",
   "name": "WDUN-550-AM",
   "call": "WDUN",
   "frequency": 550,
   "band": "AM",
   "limbaughAffiliate": 1,
   "limbaughLink": "",
   "fasAffiliate": 0,
   "fasLink": "",
   "market": ""
 },
 {
   "lat": 35.5683,
   "long": -82.6272,
   "live": "",
   "name": "WSKY-1230-AM",
   "call": "WSKY",
   "frequency": 1230,
   "band": "AM",
   "limbaughAffiliate": 1,
   "limbaughLink": "",
   "fasAffiliate": 0,
   "fasLink": "",
   "market": ""
 },
 {
   "lat": 40.9421,
   "long": -90.378,
   "live": "",
   "name": "WGIL-1400-AM",
   "call": "WGIL",
   "frequency": 1400,
   "band": "AM",
   "limbaughAffiliate": 1,
   "limbaughLink": "",
   "fasAffiliate": 0,
   "fasLink": "",
   "market": ""
 },
 {
   "lat": 38.105,
   "long": -101.0117,
   "live": "",
   "name": "KBUF-1030-AM",
   "call": "KBUF",
   "frequency": 1030,
   "band": "AM",
   "limbaughAffiliate": 1,
   "limbaughLink": "",
   "fasAffiliate": 0,
   "fasLink": "",
   "market": ""
 },
 {
   "lat": 43.5645,
   "long": -71.482,
   "live": "",
   "name": "WEMJ-1490-AM",
   "call": "WEMJ",
   "frequency": 1490,
   "band": "AM",
   "limbaughAffiliate": 1,
   "limbaughLink": "",
   "fasAffiliate": 0,
   "fasLink": "",
   "market": ""
 },
 {
   "lat": 44.5562,
   "long": -105.6665,
   "live": "",
   "name": "KIML-1270-AM",
   "call": "KIML",
   "frequency": 1270,
   "band": "AM",
   "limbaughAffiliate": 1,
   "limbaughLink": "",
   "fasAffiliate": 0,
   "fasLink": "",
   "market": ""
 },
 {
   "lat": 34.078,
   "long": -117.2578,
   "live": "",
   "name": "KTIE-590-AM",
   "call": "KTIE",
   "frequency": 590,
   "band": "AM",
   "limbaughAffiliate": 1,
   "limbaughLink": "",
   "fasAffiliate": 0,
   "fasLink": "",
   "market": ""
 },
 {
   "lat": 40.925,
   "long": -98.342,
   "live": "",
   "name": "KRGI-FM-96.5-FM",
   "call": "KRGI-FM",
   "frequency": 96.5,
   "band": "FM",
   "limbaughAffiliate": 1,
   "limbaughLink": "",
   "fasAffiliate": 0,
   "fasLink": "",
   "market": ""
 },
 {
   "lat": 39.1264,
   "long": -108.5363,
   "live": "",
   "name": "KNZZ-1100-AM",
   "call": "KNZZ",
   "frequency": 1100,
   "band": "AM",
   "limbaughAffiliate": 1,
   "limbaughLink": "",
   "fasAffiliate": 0,
   "fasLink": "",
   "market": ""
 },
 {
   "lat": 39.5846,
   "long": -107.3016,
   "live": "",
   "name": "KGLN-980-AM",
   "call": "KGLN",
   "frequency": 980,
   "band": "AM",
   "limbaughAffiliate": 1,
   "limbaughLink": "",
   "fasAffiliate": 0,
   "fasLink": "",
   "market": ""
 },
 {
   "lat": 42.9777,
   "long": -85.711,
   "live": "",
   "name": "WOOD-1300-AM",
   "call": "WOOD",
   "frequency": 1300,
   "band": "AM",
   "limbaughAffiliate": 1,
   "limbaughLink": "",
   "fasAffiliate": 0,
   "fasLink": "",
   "market": ""
 },
 {
   "lat": 42.5386,
   "long": -123.3478,
   "live": "",
   "name": "KAJO-1270-AM",
   "call": "KAJO",
   "frequency": 1270,
   "band": "AM",
   "limbaughAffiliate": 1,
   "limbaughLink": "",
   "fasAffiliate": 0,
   "fasLink": "",
   "market": ""
 },
 {
   "lat": 39.111,
   "long": -121.1268,
   "live": "",
   "name": "KNCO-830-AM",
   "call": "KNCO",
   "frequency": 830,
   "band": "AM",
   "limbaughAffiliate": 1,
   "limbaughLink": "",
   "fasAffiliate": 0,
   "fasLink": "",
   "market": ""
 },
 {
   "lat": 36.3891,
   "long": -82.4511,
   "live": "",
   "name": "WJCW-910-AM",
   "call": "WJCW",
   "frequency": 910,
   "band": "AM",
   "limbaughAffiliate": 1,
   "limbaughLink": "",
   "fasAffiliate": 0,
   "fasLink": "",
   "market": ""
 },
 {
   "lat": 38.1752,
   "long": -99.1569,
   "live": "",
   "name": "KNNS-1510-AM",
   "call": "KNNS",
   "frequency": 1510,
   "band": "AM",
   "limbaughAffiliate": 1,
   "limbaughLink": "",
   "fasAffiliate": 0,
   "fasLink": "",
   "market": ""
 },
 {
   "lat": 47.2994,
   "long": -111.3441,
   "live": "",
   "name": "KQDI-FM-106.1-FM",
   "call": "KQDI-FM",
   "frequency": 106.1,
   "band": "FM",
   "limbaughAffiliate": 1,
   "limbaughLink": "",
   "fasAffiliate": 0,
   "fasLink": "",
   "market": ""
 },
 {
   "lat": 44.4889,
   "long": -88.0704,
   "live": "",
   "name": "WTAQ-1360-AM",
   "call": "WTAQ",
   "frequency": 1360,
   "band": "AM",
   "limbaughAffiliate": 1,
   "limbaughLink": "",
   "fasAffiliate": 0,
   "fasLink": "",
   "market": ""
 },
 {
   "lat": 44.4889,
   "long": -88.0704,
   "live": "",
   "name": "WTAQ-1360-AM",
   "call": "WTAQ",
   "frequency": 1360,
   "band": "AM",
   "limbaughAffiliate": 1,
   "limbaughLink": "",
   "fasAffiliate": 0,
   "fasLink": "",
   "market": ""
 },
 {
   "lat": 43.0434,
   "long": -87.8945,
   "live": "",
   "name": "WISN-1130-AM",
   "call": "WISN",
   "frequency": 1130,
   "band": "AM",
   "limbaughAffiliate": 1,
   "limbaughLink": "",
   "fasAffiliate": 0,
   "fasLink": "",
   "market": ""
 },
 {
   "lat": 43.0434,
   "long": -87.8945,
   "live": "",
   "name": "WRNW-97.3-FM",
   "call": "WRNW",
   "frequency": 97.3,
   "band": "FM",
   "limbaughAffiliate": 1,
   "limbaughLink": "",
   "fasAffiliate": 0,
   "fasLink": "",
   "market": ""
 },
 {
   "lat": 33.5717,
   "long": -83.1765,
   "live": "",
   "name": "WDDK-103.9-FM",
   "call": "WDDK",
   "frequency": 103.9,
   "band": "FM",
   "limbaughAffiliate": 1,
   "limbaughLink": "",
   "fasAffiliate": 0,
   "fasLink": "",
   "market": ""
 },
 {
   "lat": 36.5054,
   "long": -79.7394,
   "live": "",
   "name": "WPTI-94.5-FM",
   "call": "WPTI",
   "frequency": 94.5,
   "band": "FM",
   "limbaughAffiliate": 1,
   "limbaughLink": "",
   "fasAffiliate": 0,
   "fasLink": "",
   "market": ""
 },
 {
   "lat": 34.8004,
   "long": -82.3221,
   "live": "",
   "name": "WYRD-1330-AM",
   "call": "WYRD",
   "frequency": 1330,
   "band": "AM",
   "limbaughAffiliate": 1,
   "limbaughLink": "",
   "fasAffiliate": 0,
   "fasLink": "",
   "market": ""
 },
 {
   "lat": 33.3246,
   "long": -90.9805,
   "live": "",
   "name": "WNIX-1330-AM",
   "call": "WNIX",
   "frequency": 1330,
   "band": "AM",
   "limbaughAffiliate": 1,
   "limbaughLink": "",
   "fasAffiliate": 0,
   "fasLink": "",
   "market": ""
 },
 {
   "lat": 33.3246,
   "long": -90.9805,
   "live": "",
   "name": "WNIX-1330-AM",
   "call": "WNIX",
   "frequency": 1330,
   "band": "AM",
   "limbaughAffiliate": 1,
   "limbaughLink": "",
   "fasAffiliate": 0,
   "fasLink": "",
   "market": ""
 },
 {
   "lat": 35.8546,
   "long": -77.0555,
   "live": "",
   "name": "WTIB-103.7-FM",
   "call": "WTIB",
   "frequency": 103.7,
   "band": "FM",
   "limbaughAffiliate": 1,
   "limbaughLink": "",
   "fasAffiliate": 0,
   "fasLink": "",
   "market": ""
 },
 {
   "lat": 34.1954,
   "long": -82.1618,
   "live": "",
   "name": "WCRS-1450-AM",
   "call": "WCRS",
   "frequency": 1450,
   "band": "AM",
   "limbaughAffiliate": 1,
   "limbaughLink": "",
   "fasAffiliate": 0,
   "fasLink": "",
   "market": ""
 },
 {
   "lat": 34.3196,
   "long": -86.2735,
   "live": "",
   "name": "WGSV-1270-AM",
   "call": "WGSV",
   "frequency": 1270,
   "band": "AM",
   "limbaughAffiliate": 1,
   "limbaughLink": "",
   "fasAffiliate": 0,
   "fasLink": "",
   "market": ""
 },
 {
   "lat": 34.3196,
   "long": -86.2735,
   "live": "",
   "name": "WTWX-FM-95.9-FM",
   "call": "WTWX-FM",
   "frequency": 95.9,
   "band": "FM",
   "limbaughAffiliate": 1,
   "limbaughLink": "",
   "fasAffiliate": 0,
   "fasLink": "",
   "market": ""
 },
 {
   "lat": 41.3094,
   "long": -72.924,
   "live": "",
   "name": "WELI-960-AM",
   "call": "WELI",
   "frequency": 960,
   "band": "AM",
   "limbaughAffiliate": 1,
   "limbaughLink": "",
   "fasAffiliate": 0,
   "fasLink": "",
   "market": ""
 },
 {
   "lat": 46.1612,
   "long": -114.1401,
   "live": "",
   "name": "KLYQ-1240-AM",
   "call": "KLYQ",
   "frequency": 1240,
   "band": "AM",
   "limbaughAffiliate": 1,
   "limbaughLink": "",
   "fasAffiliate": 0,
   "fasLink": "",
   "market": ""
 },
 {
   "lat": 47.1815,
   "long": -88.5504,
   "live": "",
   "name": "WMPL-920-AM",
   "call": "WMPL",
   "frequency": 920,
   "band": "AM",
   "limbaughAffiliate": 1,
   "limbaughLink": "",
   "fasAffiliate": 0,
   "fasLink": "",
   "market": ""
 },
 {
   "lat": 40.2762,
   "long": -76.7889,
   "live": "",
   "name": "WHP-580-AM",
   "call": "WHP",
   "frequency": 580,
   "band": "AM",
   "limbaughAffiliate": 1,
   "limbaughLink": "",
   "fasAffiliate": 0,
   "fasLink": "",
   "market": ""
 },
 {
   "lat": 38.1103,
   "long": -78.9073,
   "live": "",
   "name": "WKCI-970-AM",
   "call": "WKCI",
   "frequency": 970,
   "band": "AM",
   "limbaughAffiliate": 1,
   "limbaughLink": "",
   "fasAffiliate": 0,
   "fasLink": "",
   "market": ""
 },
 {
   "lat": 38.4031,
   "long": -78.8914,
   "live": "",
   "name": "WKCY-1300-AM",
   "call": "WKCY",
   "frequency": 1300,
   "band": "AM",
   "limbaughAffiliate": 1,
   "limbaughLink": "",
   "fasAffiliate": 0,
   "fasLink": "",
   "market": ""
 },
 {
   "lat": 38.4031,
   "long": -78.8914,
   "live": "",
   "name": "WKCY-1300-AM",
   "call": "WKCY",
   "frequency": 1300,
   "band": "AM",
   "limbaughAffiliate": 1,
   "limbaughLink": "",
   "fasAffiliate": 0,
   "fasLink": "",
   "market": ""
 },
 {
   "lat": 31.6941,
   "long": -89.1306,
   "live": "",
   "name": "WMXI-98.1-FM",
   "call": "WMXI",
   "frequency": 98.1,
   "band": "FM",
   "limbaughAffiliate": 1,
   "limbaughLink": "",
   "fasAffiliate": 0,
   "fasLink": "",
   "market": ""
 },
 {
   "lat": 38.9001,
   "long": -99.347,
   "live": "",
   "name": "KRMR-105.7-FM",
   "call": "KRMR",
   "frequency": 105.7,
   "band": "FM",
   "limbaughAffiliate": 1,
   "limbaughLink": "",
   "fasAffiliate": 0,
   "fasLink": "",
   "market": ""
 },
 {
   "lat": 46.5172,
   "long": -112.1211,
   "live": "",
   "name": "KCAP-950-AM",
   "call": "KCAP",
   "frequency": 950,
   "band": "AM",
   "limbaughAffiliate": 1,
   "limbaughLink": "",
   "fasAffiliate": 0,
   "fasLink": "",
   "market": ""
 },
 {
   "lat": 35.3621,
   "long": -82.5082,
   "live": "",
   "name": "WHKP-1450-AM",
   "call": "WHKP",
   "frequency": 1450,
   "band": "AM",
   "limbaughAffiliate": 1,
   "limbaughLink": "",
   "fasAffiliate": 0,
   "fasLink": "",
   "market": ""
 },
 {
   "lat": 47.4623,
   "long": -93.193,
   "live": "",
   "name": "WNMT-650-AM",
   "call": "WNMT",
   "frequency": 650,
   "band": "AM",
   "limbaughAffiliate": 1,
   "limbaughLink": "",
   "fasAffiliate": 0,
   "fasLink": "",
   "market": ""
 },
 {
   "lat": 35.6767,
   "long": -81.385,
   "live": "",
   "name": "WHKY-1290-AM",
   "call": "WHKY",
   "frequency": 1290,
   "band": "AM",
   "limbaughAffiliate": 1,
   "limbaughLink": "",
   "fasAffiliate": 0,
   "fasLink": "",
   "market": ""
 },
 {
   "lat": 35.6767,
   "long": -81.385,
   "live": "",
   "name": "WHKY-1290-AM",
   "call": "WHKY",
   "frequency": 1290,
   "band": "AM",
   "limbaughAffiliate": 1,
   "limbaughLink": "",
   "fasAffiliate": 0,
   "fasLink": "",
   "market": ""
 },
 {
   "lat": 60.3208,
   "long": -150.7989,
   "live": "",
   "name": "KPEN-FM-101.7-FM",
   "call": "KPEN-FM",
   "frequency": 101.7,
   "band": "FM",
   "limbaughAffiliate": 1,
   "limbaughLink": "",
   "fasAffiliate": 0,
   "fasLink": "",
   "market": ""
 },
 {
   "lat": 59.4039,
   "long": -151.3239,
   "live": "",
   "name": "KGTL-620-AM",
   "call": "KGTL",
   "frequency": 620,
   "band": "AM",
   "limbaughAffiliate": 1,
   "limbaughLink": "",
   "fasAffiliate": 0,
   "fasLink": "",
   "market": ""
 },
 {
   "lat": 28.7501,
   "long": -82.5166,
   "live": "",
   "name": "WXJB-99.9-FM",
   "call": "WXJB",
   "frequency": 99.9,
   "band": "FM",
   "limbaughAffiliate": 1,
   "limbaughLink": "",
   "fasAffiliate": 0,
   "fasLink": "",
   "market": ""
 },
 {
   "lat": 41.6294,
   "long": -75.2424,
   "live": "",
   "name": "WPSN-1590-AM",
   "call": "WPSN",
   "frequency": 1590,
   "band": "AM",
   "limbaughAffiliate": 1,
   "limbaughLink": "",
   "fasAffiliate": 0,
   "fasLink": "",
   "market": ""
 },
 {
   "lat": 21.3209,
   "long": -157.8389,
   "live": "",
   "name": "KHVH-830-AM",
   "call": "KHVH",
   "frequency": 830,
   "band": "AM",
   "limbaughAffiliate": 1,
   "limbaughLink": "",
   "fasAffiliate": 0,
   "fasLink": "",
   "market": ""
 },
 {
   "lat": 36.9074,
   "long": -87.4597,
   "live": "",
   "name": "WHOP-1230-AM",
   "call": "WHOP",
   "frequency": 1230,
   "band": "AM",
   "limbaughAffiliate": 1,
   "limbaughLink": "",
   "fasAffiliate": 0,
   "fasLink": "",
   "market": ""
 },
 {
   "lat": 42.3056,
   "long": -77.6315,
   "live": "",
   "name": "WLEA-1480-AM",
   "call": "WLEA",
   "frequency": 1480,
   "band": "AM",
   "limbaughAffiliate": 1,
   "limbaughLink": "",
   "fasAffiliate": 0,
   "fasLink": "",
   "market": ""
 },
 {
   "lat": 34.5037,
   "long": -93.0552,
   "live": "",
   "name": "KZNG-1340-AM",
   "call": "KZNG",
   "frequency": 1340,
   "band": "AM",
   "limbaughAffiliate": 1,
   "limbaughLink": "",
   "fasAffiliate": 0,
   "fasLink": "",
   "market": ""
 },
 {
   "lat": 29.8688,
   "long": -95.538,
   "live": "",
   "name": "KQBT-93.7-FM",
   "call": "KQBT",
   "frequency": 93.7,
   "band": "FM",
   "limbaughAffiliate": 1,
   "limbaughLink": "",
   "fasAffiliate": 0,
   "fasLink": "",
   "market": ""
 },
 {
   "lat": 29.8688,
   "long": -95.538,
   "live": "",
   "name": "KTRH-740-AM",
   "call": "KTRH",
   "frequency": 740,
   "band": "AM",
   "limbaughAffiliate": 1,
   "limbaughLink": "",
   "fasAffiliate": 0,
   "fasLink": "",
   "market": ""
 },
 {
   "lat": 38.3685,
   "long": -82.4245,
   "live": "",
   "name": "WVHU-800-AM",
   "call": "WVHU",
   "frequency": 800,
   "band": "AM",
   "limbaughAffiliate": 1,
   "limbaughLink": "",
   "fasAffiliate": 0,
   "fasLink": "",
   "market": ""
 },
 {
   "lat": 38.4442,
   "long": -82.1337,
   "live": "",
   "name": "WZZW-1600-AM",
   "call": "WZZW",
   "frequency": 1600,
   "band": "AM",
   "limbaughAffiliate": 1,
   "limbaughLink": "",
   "fasAffiliate": 0,
   "fasLink": "",
   "market": ""
 },
 {
   "lat": 37.952,
   "long": -97.9771,
   "live": "",
   "name": "KWBW-1450-AM",
   "call": "KWBW",
   "frequency": 1450,
   "band": "AM",
   "limbaughAffiliate": 1,
   "limbaughLink": "",
   "fasAffiliate": 0,
   "fasLink": "",
   "market": ""
 },
 {
   "lat": 37.952,
   "long": -97.9771,
   "live": "",
   "name": "KWBW-1450-AM",
   "call": "KWBW",
   "frequency": 1450,
   "band": "AM",
   "limbaughAffiliate": 1,
   "limbaughLink": "",
   "fasAffiliate": 0,
   "fasLink": "",
   "market": ""
 },
 {
   "lat": 41.6494,
   "long": -70.2415,
   "live": "",
   "name": "WXTK-95.1-FM",
   "call": "WXTK",
   "frequency": 95.1,
   "band": "FM",
   "limbaughAffiliate": 1,
   "limbaughLink": "",
   "fasAffiliate": 0,
   "fasLink": "",
   "market": ""
 },
 {
   "lat": 43.8512,
   "long": -111.6902,
   "live": "",
   "name": "KIDJ-106.3-FM",
   "call": "KIDJ",
   "frequency": 106.3,
   "band": "FM",
   "limbaughAffiliate": 1,
   "limbaughLink": "",
   "fasAffiliate": 0,
   "fasLink": "",
   "market": ""
 },
 {
   "lat": 43.4285,
   "long": -112.0041,
   "live": "",
   "name": "KID-590-AM",
   "call": "KID",
   "frequency": 590,
   "band": "AM",
   "limbaughAffiliate": 1,
   "limbaughLink": "",
   "fasAffiliate": 0,
   "fasLink": "",
   "market": ""
 },
 {
   "lat": 41.4379,
   "long": -81.5366,
   "live": "",
   "name": "WTAM-1100-AM",
   "call": "WTAM",
   "frequency": 1100,
   "band": "AM",
   "limbaughAffiliate": 1,
   "limbaughLink": "",
   "fasAffiliate": 0,
   "fasLink": "",
   "market": ""
 },
 {
   "lat": 39.793,
   "long": -86.2853,
   "live": "",
   "name": "WNDE-1260-AM",
   "call": "WNDE",
   "frequency": 1260,
   "band": "AM",
   "limbaughAffiliate": 1,
   "limbaughLink": "",
   "fasAffiliate": 0,
   "fasLink": "",
   "market": ""
 },
 {
   "lat": 37.9439,
   "long": -95.4092,
   "live": "",
   "name": "KIOL-1370-AM",
   "call": "KIOL",
   "frequency": 1370,
   "band": "AM",
   "limbaughAffiliate": 1,
   "limbaughLink": "",
   "fasAffiliate": 0,
   "fasLink": "",
   "market": ""
 },
 {
   "lat": 42.4072,
   "long": -76.5159,
   "live": "",
   "name": "WHCU-870-AM",
   "call": "WHCU",
   "frequency": 870,
   "band": "AM",
   "limbaughAffiliate": 1,
   "limbaughLink": "",
   "fasAffiliate": 0,
   "fasLink": "",
   "market": ""
 },
 {
   "lat": 35.5752,
   "long": -88.8586,
   "live": "",
   "name": "WDXI-1310-AM",
   "call": "WDXI",
   "frequency": 1310,
   "band": "AM",
   "limbaughAffiliate": 1,
   "limbaughLink": "",
   "fasAffiliate": 0,
   "fasLink": "",
   "market": ""
 },
 {
   "lat": 32.3134,
   "long": -90.172,
   "live": "",
   "name": "WJDX-620-AM",
   "call": "WJDX",
   "frequency": 620,
   "band": "AM",
   "limbaughAffiliate": 1,
   "limbaughLink": "",
   "fasAffiliate": 0,
   "fasLink": "",
   "market": ""
 },
 {
   "lat": 35.5752,
   "long": -88.8586,
   "live": "",
   "name": "WDXI-1310-AM",
   "call": "WDXI",
   "frequency": 1310,
   "band": "AM",
   "limbaughAffiliate": 1,
   "limbaughLink": "",
   "fasAffiliate": 0,
   "fasLink": "",
   "market": ""
 },
 {
   "lat": 42.2749,
   "long": -84.4017,
   "live": "",
   "name": "WKHM-970-AM",
   "call": "WKHM",
   "frequency": 970,
   "band": "AM",
   "limbaughAffiliate": 1,
   "limbaughLink": "",
   "fasAffiliate": 0,
   "fasLink": "",
   "market": ""
 },
 {
   "lat": 39.7401,
   "long": -90.2388,
   "live": "",
   "name": "WJIL-1550-AM",
   "call": "WJIL",
   "frequency": 1550,
   "band": "AM",
   "limbaughAffiliate": 1,
   "limbaughLink": "",
   "fasAffiliate": 0,
   "fasLink": "",
   "market": ""
 },
 {
   "lat": 30.3533,
   "long": -81.499,
   "live": "",
   "name": "WOKV-690-AM",
   "call": "WOKV",
   "frequency": 690,
   "band": "AM",
   "limbaughAffiliate": 1,
   "limbaughLink": "",
   "fasAffiliate": 0,
   "fasLink": "",
   "market": ""
 },
 {
   "lat": 30.3533,
   "long": -81.499,
   "live": "",
   "name": "WOKV-690-AM",
   "call": "WOKV",
   "frequency": 690,
   "band": "AM",
   "limbaughAffiliate": 1,
   "limbaughLink": "",
   "fasAffiliate": 0,
   "fasLink": "",
   "market": ""
 },
 {
   "lat": 38.5516,
   "long": -92.2745,
   "live": "",
   "name": "KWOS-950-AM",
   "call": "KWOS",
   "frequency": 950,
   "band": "AM",
   "limbaughAffiliate": 1,
   "limbaughLink": "",
   "fasAffiliate": 0,
   "fasLink": "",
   "market": ""
 },
 {
   "lat": 38.5516,
   "long": -92.2745,
   "live": "",
   "name": "KWOS-950-AM",
   "call": "KWOS",
   "frequency": 950,
   "band": "AM",
   "limbaughAffiliate": 1,
   "limbaughLink": "",
   "fasAffiliate": 0,
   "fasLink": "",
   "market": ""
 },
 {
   "lat": 44.3895,
   "long": -118.641,
   "live": "",
   "name": "KHKO-102.9-FM",
   "call": "KHKO",
   "frequency": 102.9,
   "band": "FM",
   "limbaughAffiliate": 1,
   "limbaughLink": "",
   "fasAffiliate": 0,
   "fasLink": "",
   "market": ""
 },
 {
   "lat": 40.2923,
   "long": -78.9834,
   "live": "",
   "name": "WNTJ-1490-AM",
   "call": "WNTJ",
   "frequency": 1490,
   "band": "AM",
   "limbaughAffiliate": 1,
   "limbaughLink": "",
   "fasAffiliate": 0,
   "fasLink": "",
   "market": ""
 },
 {
   "lat": 40.0379,
   "long": -79.1204,
   "live": "",
   "name": "WNTI-990-AM",
   "call": "WNTI",
   "frequency": 990,
   "band": "AM",
   "limbaughAffiliate": 1,
   "limbaughLink": "",
   "fasAffiliate": 0,
   "fasLink": "",
   "market": ""
 },
 {
   "lat": 35.8864,
   "long": -90.6425,
   "live": "",
   "name": "KBTM-1230-AM",
   "call": "KBTM",
   "frequency": 1230,
   "band": "AM",
   "limbaughAffiliate": 1,
   "limbaughLink": "",
   "fasAffiliate": 0,
   "fasLink": "",
   "market": ""
 },
 {
   "lat": 35.8864,
   "long": -90.6425,
   "live": "",
   "name": "KBTM-1230-AM",
   "call": "KBTM",
   "frequency": 1230,
   "band": "AM",
   "limbaughAffiliate": 1,
   "limbaughLink": "",
   "fasAffiliate": 0,
   "fasLink": "",
   "market": ""
 },
 {
   "lat": 37.017,
   "long": -94.4933,
   "live": "",
   "name": "KZRG-1310-AM",
   "call": "KZRG",
   "frequency": 1310,
   "band": "AM",
   "limbaughAffiliate": 1,
   "limbaughLink": "",
   "fasAffiliate": 0,
   "fasLink": "",
   "market": ""
 },
 {
   "lat": 37.017,
   "long": -94.4933,
   "live": "",
   "name": "KZRG-1310-AM",
   "call": "KZRG",
   "frequency": 1310,
   "band": "AM",
   "limbaughAffiliate": 1,
   "limbaughLink": "",
   "fasAffiliate": 0,
   "fasLink": "",
   "market": ""
 },
 {
   "lat": 58.3019,
   "long": -134.4197,
   "live": "",
   "name": "KJNO-630-AM",
   "call": "KJNO",
   "frequency": 630,
   "band": "AM",
   "limbaughAffiliate": 1,
   "limbaughLink": "",
   "fasAffiliate": 0,
   "fasLink": "",
   "market": ""
 },
 {
   "lat": 42.3541,
   "long": -85.547,
   "live": "",
   "name": "WKMI-1360-AM",
   "call": "WKMI",
   "frequency": 1360,
   "band": "AM",
   "limbaughAffiliate": 1,
   "limbaughLink": "",
   "fasAffiliate": 0,
   "fasLink": "",
   "market": ""
 },
 {
   "lat": 48.4111,
   "long": -114.3376,
   "live": "",
   "name": "KJJR-880-AM",
   "call": "KJJR",
   "frequency": 880,
   "band": "AM",
   "limbaughAffiliate": 1,
   "limbaughLink": "",
   "fasAffiliate": 0,
   "fasLink": "",
   "market": ""
 },
 {
   "lat": 40.7499,
   "long": -99.198,
   "live": "",
   "name": "KGFW-1340-AM",
   "call": "KGFW",
   "frequency": 1340,
   "band": "AM",
   "limbaughAffiliate": 1,
   "limbaughLink": "",
   "fasAffiliate": 0,
   "fasLink": "",
   "market": ""
 },
 {
   "lat": 42.9703,
   "long": -72.28,
   "live": "",
   "name": "WKBK-1290-AM",
   "call": "WKBK",
   "frequency": 1290,
   "band": "AM",
   "limbaughAffiliate": 1,
   "limbaughLink": "",
   "fasAffiliate": 0,
   "fasLink": "",
   "market": ""
 },
 {
   "lat": 44.4051,
   "long": -69.7567,
   "live": "",
   "name": "WVQM-101.3-FM",
   "call": "WVQM",
   "frequency": 101.3,
   "band": "FM",
   "limbaughAffiliate": 1,
   "limbaughLink": "",
   "fasAffiliate": 0,
   "fasLink": "",
   "market": ""
 },
 {
   "lat": 44.1272,
   "long": -69.1336,
   "live": "",
   "name": "WVOM-1450-AM",
   "call": "WVOM",
   "frequency": 1450,
   "band": "AM",
   "limbaughAffiliate": 1,
   "limbaughLink": "",
   "fasAffiliate": 0,
   "fasLink": "",
   "market": ""
 },
 {
   "lat": 44.1272,
   "long": -69.1336,
   "live": "",
   "name": "WVOM-1450-AM",
   "call": "WVOM",
   "frequency": 1450,
   "band": "AM",
   "limbaughAffiliate": 1,
   "limbaughLink": "",
   "fasAffiliate": 0,
   "fasLink": "",
   "market": ""
 },
 {
   "lat": 30.4995,
   "long": -99.7923,
   "live": "",
   "name": "KOOK-93.5-FM",
   "call": "KOOK",
   "frequency": 93.5,
   "band": "FM",
   "limbaughAffiliate": 1,
   "limbaughLink": "",
   "fasAffiliate": 0,
   "fasLink": "",
   "market": ""
 },
 {
   "lat": 30.0452,
   "long": -99.1682,
   "live": "",
   "name": "KERV-1230-AM",
   "call": "KERV",
   "frequency": 1230,
   "band": "AM",
   "limbaughAffiliate": 1,
   "limbaughLink": "",
   "fasAffiliate": 0,
   "fasLink": "",
   "market": ""
 },
 {
   "lat": 55.6153,
   "long": -131.5848,
   "live": "",
   "name": "KTKN-930-AM",
   "call": "KTKN",
   "frequency": 930,
   "band": "AM",
   "limbaughAffiliate": 1,
   "limbaughLink": "",
   "fasAffiliate": 0,
   "fasLink": "",
   "market": ""
 },
 {
   "lat": 55.6153,
   "long": -131.5848,
   "live": "",
   "name": "KTKN-930-AM",
   "call": "KTKN",
   "frequency": 930,
   "band": "AM",
   "limbaughAffiliate": 1,
   "limbaughLink": "",
   "fasAffiliate": 0,
   "fasLink": "",
   "market": ""
 },
 {
   "lat": 42.1851,
   "long": -121.6141,
   "live": "",
   "name": "KAGO-1150-AM",
   "call": "KAGO",
   "frequency": 1150,
   "band": "AM",
   "limbaughAffiliate": 1,
   "limbaughLink": "",
   "fasAffiliate": 0,
   "fasLink": "",
   "market": ""
 },
 {
   "lat": 43.8014,
   "long": -91.2396,
   "live": "",
   "name": "WIZM-1410-AM",
   "call": "WIZM",
   "frequency": 1410,
   "band": "AM",
   "limbaughAffiliate": 1,
   "limbaughLink": "",
   "fasAffiliate": 0,
   "fasLink": "",
   "market": ""
 },
 {
   "lat": 43.8014,
   "long": -91.2396,
   "live": "",
   "name": "WIZM-1410-AM",
   "call": "WIZM",
   "frequency": 1410,
   "band": "AM",
   "limbaughAffiliate": 1,
   "limbaughLink": "",
   "fasAffiliate": 0,
   "fasLink": "",
   "market": ""
 },
 {
   "lat": 45.323,
   "long": -118.2027,
   "live": "",
   "name": "KLBM-1450-AM",
   "call": "KLBM",
   "frequency": 1450,
   "band": "AM",
   "limbaughAffiliate": 1,
   "limbaughLink": "",
   "fasAffiliate": 0,
   "fasLink": "",
   "market": ""
 },
 {
   "lat": 30.2853,
   "long": -91.7987,
   "live": "",
   "name": "KPEL-FM-96.5-FM",
   "call": "KPEL-FM",
   "frequency": 96.5,
   "band": "FM",
   "limbaughAffiliate": 1,
   "limbaughLink": "",
   "fasAffiliate": 0,
   "fasLink": "",
   "market": ""
 },
 {
   "lat": 28.0407,
   "long": -81.9043,
   "live": "",
   "name": "WLKF-1430-AM",
   "call": "WLKF",
   "frequency": 1430,
   "band": "AM",
   "limbaughAffiliate": 1,
   "limbaughLink": "",
   "fasAffiliate": 0,
   "fasLink": "",
   "market": ""
 },
 {
   "lat": 34.9484,
   "long": -110.0975,
   "live": "",
   "name": "KDJI-1270-AM",
   "call": "KDJI",
   "frequency": 1270,
   "band": "AM",
   "limbaughAffiliate": 1,
   "limbaughLink": "",
   "fasAffiliate": 0,
   "fasLink": "",
   "market": ""
 },
 {
   "lat": 34.2338,
   "long": -110.0772,
   "live": "",
   "name": "KVWM-970-AM",
   "call": "KVWM",
   "frequency": 970,
   "band": "AM",
   "limbaughAffiliate": 1,
   "limbaughLink": "",
   "fasAffiliate": 0,
   "fasLink": "",
   "market": ""
 },
 {
   "lat": 35.0979,
   "long": -118.1302,
   "live": "",
   "name": "KTPI-1340-AM",
   "call": "KTPI",
   "frequency": 1340,
   "band": "AM",
   "limbaughAffiliate": 1,
   "limbaughLink": "",
   "fasAffiliate": 0,
   "fasLink": "",
   "market": ""
 },
 {
   "lat": 42.7422,
   "long": -84.5255,
   "live": "",
   "name": "WJIM-1240-AM",
   "call": "WJIM",
   "frequency": 1240,
   "band": "AM",
   "limbaughAffiliate": 1,
   "limbaughLink": "",
   "fasAffiliate": 0,
   "fasLink": "",
   "market": ""
 },
 {
   "lat": 36.2187,
   "long": -115.1293,
   "live": "",
   "name": "KXNT-840-AM",
   "call": "KXNT",
   "frequency": 840,
   "band": "AM",
   "limbaughAffiliate": 1,
   "limbaughLink": "",
   "fasAffiliate": 0,
   "fasLink": "",
   "market": ""
 },
 {
   "lat": 42.8822,
   "long": -73.9916,
   "live": "",
   "name": "WGY-810-AM",
   "call": "WGY",
   "frequency": 810,
   "band": "AM",
   "limbaughAffiliate": 1,
   "limbaughLink": "",
   "fasAffiliate": 0,
   "fasLink": "",
   "market": ""
 },
 {
   "lat": 42.8822,
   "long": -73.9916,
   "live": "",
   "name": "WGY-810-AM",
   "call": "WGY",
   "frequency": 810,
   "band": "AM",
   "limbaughAffiliate": 1,
   "limbaughLink": "",
   "fasAffiliate": 0,
   "fasLink": "",
   "market": ""
 },
 {
   "lat": 38.1346,
   "long": -84.4958,
   "live": "",
   "name": "WLAP-630-AM",
   "call": "WLAP",
   "frequency": 630,
   "band": "AM",
   "limbaughAffiliate": 1,
   "limbaughLink": "",
   "fasAffiliate": 0,
   "fasLink": "",
   "market": ""
 },
 {
   "lat": 37.1347,
   "long": -100.8862,
   "live": "",
   "name": "KSCB-FM-107.5-FM",
   "call": "KSCB-FM",
   "frequency": 107.5,
   "band": "FM",
   "limbaughAffiliate": 1,
   "limbaughLink": "",
   "fasAffiliate": 0,
   "fasLink": "",
   "market": ""
 },
 {
   "lat": 40.7988,
   "long": -84.1319,
   "live": "",
   "name": "WIMA-1150-AM",
   "call": "WIMA",
   "frequency": 1150,
   "band": "AM",
   "limbaughAffiliate": 1,
   "limbaughLink": "",
   "fasAffiliate": 0,
   "fasLink": "",
   "market": ""
 },
 {
   "lat": 40.8176,
   "long": -96.7114,
   "live": "",
   "name": "KLIN-1400-AM",
   "call": "KLIN",
   "frequency": 1400,
   "band": "AM",
   "limbaughAffiliate": 1,
   "limbaughLink": "",
   "fasAffiliate": 0,
   "fasLink": "",
   "market": ""
 },
 {
   "lat": 40.8176,
   "long": -96.7114,
   "live": "",
   "name": "KBBK-107.3-FM",
   "call": "KBBK",
   "frequency": 107.3,
   "band": "FM",
   "limbaughAffiliate": 1,
   "limbaughLink": "",
   "fasAffiliate": 0,
   "fasLink": "",
   "market": ""
 },
 {
   "lat": 34.7465,
   "long": -92.2896,
   "live": "",
   "name": "KARN-920-AM",
   "call": "KARN",
   "frequency": 920,
   "band": "AM",
   "limbaughAffiliate": 1,
   "limbaughLink": "",
   "fasAffiliate": 0,
   "fasLink": "",
   "market": ""
 },
 {
   "lat": 30.3064,
   "long": -82.9878,
   "live": "",
   "name": "WJZS-106.1-FM",
   "call": "WJZS",
   "frequency": 106.1,
   "band": "FM",
   "limbaughAffiliate": 1,
   "limbaughLink": "",
   "fasAffiliate": 0,
   "fasLink": "",
   "market": ""
 },
 {
   "lat": 41.7048,
   "long": -111.8709,
   "live": "",
   "name": "KVNU-610-AM",
   "call": "KVNU",
   "frequency": 610,
   "band": "AM",
   "limbaughAffiliate": 1,
   "limbaughLink": "",
   "fasAffiliate": 0,
   "fasLink": "",
   "market": ""
 },
 {
   "lat": 46.1933,
   "long": -123.0548,
   "live": "",
   "name": "KEDO-1400-AM",
   "call": "KEDO",
   "frequency": 1400,
   "band": "AM",
   "limbaughAffiliate": 1,
   "limbaughLink": "",
   "fasAffiliate": 0,
   "fasLink": "",
   "market": ""
 },
 {
   "lat": 38.0858,
   "long": -85.8495,
   "live": "",
   "name": "WHAS-840-AM",
   "call": "WHAS",
   "frequency": 840,
   "band": "AM",
   "limbaughAffiliate": 1,
   "limbaughLink": "",
   "fasAffiliate": 0,
   "fasLink": "",
   "market": ""
 },
 {
   "lat": 40.833,
   "long": -105.0461,
   "live": "",
   "name": "KCOL-600-AM",
   "call": "KCOL",
   "frequency": 600,
   "band": "AM",
   "limbaughAffiliate": 1,
   "limbaughLink": "",
   "fasAffiliate": 0,
   "fasLink": "",
   "market": ""
 },
 {
   "lat": 33.5903,
   "long": -101.8519,
   "live": "",
   "name": "KFYO-790-AM",
   "call": "KFYO",
   "frequency": 790,
   "band": "AM",
   "limbaughAffiliate": 1,
   "limbaughLink": "",
   "fasAffiliate": 0,
   "fasLink": "",
   "market": ""
 },
 {
   "lat": 43.1082,
   "long": -89.2706,
   "live": "",
   "name": "WIBA-1310-AM",
   "call": "WIBA",
   "frequency": 1310,
   "band": "AM",
   "limbaughAffiliate": 1,
   "limbaughLink": "",
   "fasAffiliate": 0,
   "fasLink": "",
   "market": ""
 },
 {
   "lat": 28.762,
   "long": -81.63,
   "live": "",
   "name": "WMGF-107.7-FM",
   "call": "WMGF",
   "frequency": 107.7,
   "band": "FM",
   "limbaughAffiliate": 1,
   "limbaughLink": "",
   "fasAffiliate": 0,
   "fasLink": "",
   "market": ""
 },
 {
   "lat": 27.943,
   "long": -82.524,
   "live": "",
   "name": "WFLA-970-AM",
   "call": "WFLA",
   "frequency": 970,
   "band": "AM",
   "limbaughAffiliate": 1,
   "limbaughLink": "",
   "fasAffiliate": 0,
   "fasLink": "",
   "market": ""
 },
 {
   "lat": 28.762,
   "long": -81.63,
   "live": "",
   "name": "WMGF-107.7-FM",
   "call": "WMGF",
   "frequency": 107.7,
   "band": "FM",
   "limbaughAffiliate": 1,
   "limbaughLink": "",
   "fasAffiliate": 0,
   "fasLink": "",
   "market": ""
 },
 {
   "lat": 42.9403,
   "long": -71.4435,
   "live": "",
   "name": "WGIR-610-AM",
   "call": "WGIR",
   "frequency": 610,
   "band": "AM",
   "limbaughAffiliate": 1,
   "limbaughLink": "",
   "fasAffiliate": 0,
   "fasLink": "",
   "market": ""
 },
 {
   "lat": 39.2483,
   "long": -96.6849,
   "live": "",
   "name": "KMAN-1350-AM",
   "call": "KMAN",
   "frequency": 1350,
   "band": "AM",
   "limbaughAffiliate": 1,
   "limbaughLink": "",
   "fasAffiliate": 0,
   "fasLink": "",
   "market": ""
 },
 {
   "lat": 40.7788,
   "long": -82.4572,
   "live": "",
   "name": "WMAN-1400-AM",
   "call": "WMAN",
   "frequency": 1400,
   "band": "AM",
   "limbaughAffiliate": 1,
   "limbaughLink": "",
   "fasAffiliate": 0,
   "fasLink": "",
   "market": ""
 },
 {
   "lat": 31.215,
   "long": -93.3729,
   "live": "",
   "name": "KWLA-103.1-FM",
   "call": "KWLA",
   "frequency": 103.1,
   "band": "FM",
   "limbaughAffiliate": 1,
   "limbaughLink": "",
   "fasAffiliate": 0,
   "fasLink": "",
   "market": ""
 },
 {
   "lat": 24.7163,
   "long": -81.0767,
   "live": "",
   "name": "WFFG-1300-AM",
   "call": "WFFG",
   "frequency": 1300,
   "band": "AM",
   "limbaughAffiliate": 1,
   "limbaughLink": "",
   "fasAffiliate": 0,
   "fasLink": "",
   "market": ""
 },
 {
   "lat": 43.0744,
   "long": -75.2117,
   "live": "",
   "name": "WIBX-950-AM",
   "call": "WIBX",
   "frequency": 950,
   "band": "AM",
   "limbaughAffiliate": 1,
   "limbaughLink": "",
   "fasAffiliate": 0,
   "fasLink": "",
   "market": ""
 },
 {
   "lat": 40.5982,
   "long": -83.1425,
   "live": "",
   "name": "WMRN-1490-AM",
   "call": "WMRN",
   "frequency": 1490,
   "band": "AM",
   "limbaughAffiliate": 1,
   "limbaughLink": "",
   "fasAffiliate": 0,
   "fasLink": "",
   "market": ""
 },
 {
   "lat": 36.3838,
   "long": -88.8319,
   "live": "",
   "name": "WCMT-1410-AM",
   "call": "WCMT",
   "frequency": 1410,
   "band": "AM",
   "limbaughAffiliate": 1,
   "limbaughLink": "",
   "fasAffiliate": 0,
   "fasLink": "",
   "market": ""
 },
 {
   "lat": 39.4632,
   "long": -77.9521,
   "live": "",
   "name": "WEPM-1340-AM",
   "call": "WEPM",
   "frequency": 1340,
   "band": "AM",
   "limbaughAffiliate": 1,
   "limbaughLink": "",
   "fasAffiliate": 0,
   "fasLink": "",
   "market": ""
 },
 {
   "lat": 43.1465,
   "long": -93.2075,
   "live": "",
   "name": "KGLO-1300-AM",
   "call": "KGLO",
   "frequency": 1300,
   "band": "AM",
   "limbaughAffiliate": 1,
   "limbaughLink": "",
   "fasAffiliate": 0,
   "fasLink": "",
   "market": ""
 },
 {
   "lat": 26.4628,
   "long": -98.2568,
   "live": "",
   "name": "KURV-710-AM",
   "call": "KURV",
   "frequency": 710,
   "band": "AM",
   "limbaughAffiliate": 1,
   "limbaughLink": "",
   "fasAffiliate": 0,
   "fasLink": "",
   "market": ""
 },
 {
   "lat": 40.2711,
   "long": -100.6466,
   "live": "",
   "name": "KBRL-1300-AM",
   "call": "KBRL",
   "frequency": 1300,
   "band": "AM",
   "limbaughAffiliate": 1,
   "limbaughLink": "",
   "fasAffiliate": 0,
   "fasLink": "",
   "market": ""
 },
 {
   "lat": 41.6465,
   "long": -80.1733,
   "live": "",
   "name": "WMGW-1490-AM",
   "call": "WMGW",
   "frequency": 1490,
   "band": "AM",
   "limbaughAffiliate": 1,
   "limbaughLink": "",
   "fasAffiliate": 0,
   "fasLink": "",
   "market": ""
 },
 {
   "lat": 41.6258,
   "long": -79.6964,
   "live": "",
   "name": "WTIV-1230-AM",
   "call": "WTIV",
   "frequency": 1230,
   "band": "AM",
   "limbaughAffiliate": 1,
   "limbaughLink": "",
   "fasAffiliate": 0,
   "fasLink": "",
   "market": ""
 },
 {
   "lat": 42.3393,
   "long": -122.7987,
   "live": "",
   "name": "KMED-1440-AM",
   "call": "KMED",
   "frequency": 1440,
   "band": "AM",
   "limbaughAffiliate": 1,
   "limbaughLink": "",
   "fasAffiliate": 0,
   "fasLink": "",
   "market": ""
 },
 {
   "lat": 28.3904,
   "long": -80.8233,
   "live": "",
   "name": "WMMV-1350-AM",
   "call": "WMMV",
   "frequency": 1350,
   "band": "AM",
   "limbaughAffiliate": 1,
   "limbaughLink": "",
   "fasAffiliate": 0,
   "fasLink": "",
   "market": ""
 },
 {
   "lat": 28.0782,
   "long": -80.7534,
   "live": "",
   "name": "WMMB-1240-AM",
   "call": "WMMB",
   "frequency": 1240,
   "band": "AM",
   "limbaughAffiliate": 1,
   "limbaughLink": "",
   "fasAffiliate": 0,
   "fasLink": "",
   "market": ""
 },
 {
   "lat": 28.0782,
   "long": -80.7534,
   "live": "",
   "name": "WMMB-1240-AM",
   "call": "WMMB",
   "frequency": 1240,
   "band": "AM",
   "limbaughAffiliate": 1,
   "limbaughLink": "",
   "fasAffiliate": 0,
   "fasLink": "",
   "market": ""
 },
 {
   "lat": 35.286,
   "long": -89.7081,
   "live": "",
   "name": "WEGR-102.7-FM",
   "call": "WEGR",
   "frequency": 102.7,
   "band": "FM",
   "limbaughAffiliate": 1,
   "limbaughLink": "",
   "fasAffiliate": 0,
   "fasLink": "",
   "market": ""
 },
 {
   "lat": 35.185,
   "long": -90.0936,
   "live": "",
   "name": "WREC-600-AM",
   "call": "WREC",
   "frequency": 600,
   "band": "AM",
   "limbaughAffiliate": 1,
   "limbaughLink": "",
   "fasAffiliate": 0,
   "fasLink": "",
   "market": ""
 },
 {
   "lat": 45.2342,
   "long": -87.5643,
   "live": "",
   "name": "WAGN-1340-AM",
   "call": "WAGN",
   "frequency": 1340,
   "band": "AM",
   "limbaughAffiliate": 1,
   "limbaughLink": "",
   "fasAffiliate": 0,
   "fasLink": "",
   "market": ""
 },
 {
   "lat": 37.29,
   "long": -120.4888,
   "live": "",
   "name": "KYOS-1480-AM",
   "call": "KYOS",
   "frequency": 1480,
   "band": "AM",
   "limbaughAffiliate": 1,
   "limbaughLink": "",
   "fasAffiliate": 0,
   "fasLink": "",
   "market": ""
 },
 {
   "lat": 32.2883,
   "long": -88.588,
   "live": "",
   "name": "WALT-910-AM",
   "call": "WALT",
   "frequency": 910,
   "band": "AM",
   "limbaughAffiliate": 1,
   "limbaughLink": "",
   "fasAffiliate": 0,
   "fasLink": "",
   "market": ""
 },
 {
   "lat": 32.2883,
   "long": -88.588,
   "live": "",
   "name": "WALT-910-AM",
   "call": "WALT",
   "frequency": 910,
   "band": "AM",
   "limbaughAffiliate": 1,
   "limbaughLink": "",
   "fasAffiliate": 0,
   "fasLink": "",
   "market": ""
 },
 {
   "lat": 45.0059,
   "long": -93.4305,
   "live": "",
   "name": "KTLK-1130-AM",
   "call": "KTLK",
   "frequency": 1130,
   "band": "AM",
   "limbaughAffiliate": 1,
   "limbaughLink": "",
   "fasAffiliate": 0,
   "fasLink": "",
   "market": ""
 },
 {
   "lat": 40.4495,
   "long": -79.988,
   "live": "",
   "name": "WBGG-970-AM",
   "call": "WBGG",
   "frequency": 970,
   "band": "AM",
   "limbaughAffiliate": 1,
   "limbaughLink": "",
   "fasAffiliate": 0,
   "fasLink": "",
   "market": ""
 },
 {
   "lat": 25.9388,
   "long": -80.2144,
   "live": "",
   "name": "WIOD-610-AM",
   "call": "WIOD",
   "frequency": 610,
   "band": "AM",
   "limbaughAffiliate": 1,
   "limbaughLink": "",
   "fasAffiliate": 0,
   "fasLink": "",
   "market": ""
 },
 {
   "lat": 39.1068,
   "long": -94.566,
   "live": "",
   "name": "KMBZ-980-AM",
   "call": "KMBZ",
   "frequency": 980,
   "band": "AM",
   "limbaughAffiliate": 1,
   "limbaughLink": "",
   "fasAffiliate": 0,
   "fasLink": "",
   "market": ""
 },
 {
   "lat": 46.9846,
   "long": -114.1213,
   "live": "",
   "name": "KGVO-1290-AM",
   "call": "KGVO",
   "frequency": 1290,
   "band": "AM",
   "limbaughAffiliate": 1,
   "limbaughLink": "",
   "fasAffiliate": 0,
   "fasLink": "",
   "market": ""
 },
 {
   "lat": 46.9846,
   "long": -114.1213,
   "live": "",
   "name": "KGVO-1290-AM",
   "call": "KGVO",
   "frequency": 1290,
   "band": "AM",
   "limbaughAffiliate": 1,
   "limbaughLink": "",
   "fasAffiliate": 0,
   "fasLink": "",
   "market": ""
 },
 {
   "lat": 43.3839,
   "long": -97.9553,
   "live": "",
   "name": "KORN-FM-92.1-FM",
   "call": "KORN-FM",
   "frequency": 92.1,
   "band": "FM",
   "limbaughAffiliate": 1,
   "limbaughLink": "",
   "fasAffiliate": 0,
   "fasLink": "",
   "market": ""
 },
 {
   "lat": 39.4037,
   "long": -92.4088,
   "live": "",
   "name": "KWIX-1230-AM",
   "call": "KWIX",
   "frequency": 1230,
   "band": "AM",
   "limbaughAffiliate": 1,
   "limbaughLink": "",
   "fasAffiliate": 0,
   "fasLink": "",
   "market": ""
 },
 {
   "lat": 39.4037,
   "long": -92.4088,
   "live": "",
   "name": "KWIX-1230-AM",
   "call": "KWIX",
   "frequency": 1230,
   "band": "AM",
   "limbaughAffiliate": 1,
   "limbaughLink": "",
   "fasAffiliate": 0,
   "fasLink": "",
   "market": ""
 },
 {
   "lat": 30.6586,
   "long": -88.3535,
   "live": "",
   "name": "WMXC-99.9-FM",
   "call": "WMXC",
   "frequency": 99.9,
   "band": "FM",
   "limbaughAffiliate": 1,
   "limbaughLink": "",
   "fasAffiliate": 0,
   "fasLink": "",
   "market": ""
 },
 {
   "lat": 30.6586,
   "long": -88.3535,
   "live": "",
   "name": "WNTM-710-AM",
   "call": "WNTM",
   "frequency": 710,
   "band": "AM",
   "limbaughAffiliate": 1,
   "limbaughLink": "",
   "fasAffiliate": 0,
   "fasLink": "",
   "market": ""
 },
 {
   "lat": 34.7595,
   "long": -77.5019,
   "live": "",
   "name": "WJNC-1240-AM",
   "call": "WJNC",
   "frequency": 1240,
   "band": "AM",
   "limbaughAffiliate": 1,
   "limbaughLink": "",
   "fasAffiliate": 0,
   "fasLink": "",
   "market": ""
 },
 {
   "lat": 34.9002,
   "long": -76.3483,
   "live": "",
   "name": "WTKF-107.1-FM",
   "call": "WTKF",
   "frequency": 107.1,
   "band": "FM",
   "limbaughAffiliate": 1,
   "limbaughLink": "",
   "fasAffiliate": 0,
   "fasLink": "",
   "market": ""
 },
 {
   "lat": 39.6456,
   "long": -79.9433,
   "live": "",
   "name": "WAJR-1440-AM",
   "call": "WAJR",
   "frequency": 1440,
   "band": "AM",
   "limbaughAffiliate": 1,
   "limbaughLink": "",
   "fasAffiliate": 0,
   "fasLink": "",
   "market": ""
 },
 {
   "lat": 39.6456,
   "long": -79.9433,
   "live": "",
   "name": "WAJR-1440-AM",
   "call": "WAJR",
   "frequency": 1440,
   "band": "AM",
   "limbaughAffiliate": 1,
   "limbaughLink": "",
   "fasAffiliate": 0,
   "fasLink": "",
   "market": ""
 },
 {
   "lat": 47.1901,
   "long": -119.3074,
   "live": "",
   "name": "KBSN-1470-AM",
   "call": "KBSN",
   "frequency": 1470,
   "band": "AM",
   "limbaughAffiliate": 1,
   "limbaughLink": "",
   "fasAffiliate": 0,
   "fasLink": "",
   "market": ""
 },
 {
   "lat": 38.9822,
   "long": -80.2008,
   "live": "",
   "name": "WBTQ-93.5-FM",
   "call": "WBTQ",
   "frequency": 93.5,
   "band": "FM",
   "limbaughAffiliate": 1,
   "limbaughLink": "",
   "fasAffiliate": 0,
   "fasLink": "",
   "market": ""
 },
 {
   "lat": 43.5786,
   "long": -84.5873,
   "live": "",
   "name": "WMMI-830-AM",
   "call": "WMMI",
   "frequency": 830,
   "band": "AM",
   "limbaughAffiliate": 1,
   "limbaughLink": "",
   "fasAffiliate": 0,
   "fasLink": "",
   "market": ""
 },
 {
   "lat": 38.3178,
   "long": -88.8921,
   "live": "",
   "name": "WMIX-940-AM",
   "call": "WMIX",
   "frequency": 940,
   "band": "AM",
   "limbaughAffiliate": 1,
   "limbaughLink": "",
   "fasAffiliate": 0,
   "fasLink": "",
   "market": ""
 },
 {
   "lat": 42.9777,
   "long": -85.711,
   "live": "",
   "name": "WOOD-1300-AM",
   "call": "WOOD",
   "frequency": 1300,
   "band": "AM",
   "limbaughAffiliate": 1,
   "limbaughLink": "",
   "fasAffiliate": 0,
   "fasLink": "",
   "market": ""
 },
 {
   "lat": 33.7527,
   "long": -78.9071,
   "live": "",
   "name": "WRNN-1450-AM",
   "call": "WRNN",
   "frequency": 1450,
   "band": "AM",
   "limbaughAffiliate": 1,
   "limbaughLink": "",
   "fasAffiliate": 0,
   "fasLink": "",
   "market": ""
 },
 {
   "lat": 36.1473,
   "long": -86.777,
   "live": "",
   "name": "WLAC-1510-AM",
   "call": "WLAC",
   "frequency": 1510,
   "band": "AM",
   "limbaughAffiliate": 1,
   "limbaughLink": "",
   "fasAffiliate": 0,
   "fasLink": "",
   "market": ""
 },
 {
   "lat": 39.7976,
   "long": -75.5392,
   "live": "",
   "name": "WILM-1450-AM",
   "call": "WILM",
   "frequency": 1450,
   "band": "AM",
   "limbaughAffiliate": 1,
   "limbaughLink": "",
   "fasAffiliate": 0,
   "fasLink": "",
   "market": ""
 },
 {
   "lat": 43.6361,
   "long": -72.2413,
   "live": "",
   "name": "WUVR-1490-AM",
   "call": "WUVR",
   "frequency": 1490,
   "band": "AM",
   "limbaughAffiliate": 1,
   "limbaughLink": "",
   "fasAffiliate": 0,
   "fasLink": "",
   "market": ""
 },
 {
   "lat": 43.438,
   "long": -72.006,
   "live": "",
   "name": "WNTK-FM-99.7-FM",
   "call": "WNTK-FM",
   "frequency": 99.7,
   "band": "FM",
   "limbaughAffiliate": 1,
   "limbaughLink": "",
   "fasAffiliate": 0,
   "fasLink": "",
   "market": ""
 },
 {
   "lat": 41.3532,
   "long": -72.0386,
   "live": "",
   "name": "WXLM-980-AM",
   "call": "WXLM",
   "frequency": 980,
   "band": "AM",
   "limbaughAffiliate": 1,
   "limbaughLink": "",
   "fasAffiliate": 0,
   "fasLink": "",
   "market": ""
 },
 {
   "lat": 29.9589,
   "long": -90.1568,
   "live": "",
   "name": "WRNO-FM-99.5-FM",
   "call": "WRNO-FM",
   "frequency": 99.5,
   "band": "FM",
   "limbaughAffiliate": 1,
   "limbaughLink": "",
   "fasAffiliate": 0,
   "fasLink": "",
   "market": ""
 },
 {
   "lat": 40.7143,
   "long": -74.006,
   "live": "",
   "name": "WAXQ-104.3-FM",
   "call": "WAXQ",
   "frequency": 104.3,
   "band": "FM",
   "limbaughAffiliate": 1,
   "limbaughLink": "",
   "fasAffiliate": 0,
   "fasLink": "",
   "market": ""
 },
 {
   "lat": 40.7143,
   "long": -74.006,
   "live": "",
   "name": "WOR-710-AM",
   "call": "WOR",
   "frequency": 710,
   "band": "AM",
   "limbaughAffiliate": 1,
   "limbaughLink": "",
   "fasAffiliate": 0,
   "fasLink": "",
   "market": ""
 },
 {
   "lat": 36.853,
   "long": -76.2882,
   "live": "",
   "name": "WNIS-790-AM",
   "call": "WNIS",
   "frequency": 790,
   "band": "AM",
   "limbaughAffiliate": 1,
   "limbaughLink": "",
   "fasAffiliate": 0,
   "fasLink": "",
   "market": ""
 },
 {
   "lat": 42.018,
   "long": -97.4543,
   "live": "",
   "name": "WJAG-780-AM",
   "call": "WJAG",
   "frequency": 780,
   "band": "AM",
   "limbaughAffiliate": 1,
   "limbaughLink": "",
   "fasAffiliate": 0,
   "fasLink": "",
   "market": ""
 },
 {
   "lat": 42.018,
   "long": -97.4543,
   "live": "",
   "name": "WJAG-780-AM",
   "call": "WJAG",
   "frequency": 780,
   "band": "AM",
   "limbaughAffiliate": 1,
   "limbaughLink": "",
   "fasAffiliate": 0,
   "fasLink": "",
   "market": ""
 },
 {
   "lat": 40.5781,
   "long": -88.6213,
   "live": "",
   "name": "WRPW-92.9-FM",
   "call": "WRPW",
   "frequency": 92.9,
   "band": "FM",
   "limbaughAffiliate": 1,
   "limbaughLink": "",
   "fasAffiliate": 0,
   "fasLink": "",
   "market": ""
 },
 {
   "lat": 41.1537,
   "long": -81.6374,
   "live": "",
   "name": "WHLO-640-AM",
   "call": "WHLO",
   "frequency": 640,
   "band": "AM",
   "limbaughAffiliate": 1,
   "limbaughLink": "",
   "fasAffiliate": 0,
   "fasLink": "",
   "market": ""
 },
 {
   "lat": 31.9974,
   "long": -102.0779,
   "live": "",
   "name": "KCRS-550-AM",
   "call": "KCRS",
   "frequency": 550,
   "band": "AM",
   "limbaughAffiliate": 1,
   "limbaughLink": "",
   "fasAffiliate": 0,
   "fasLink": "",
   "market": ""
 },
 {
   "lat": 44.6052,
   "long": -75.5947,
   "live": "",
   "name": "WQTK-92.7-FM",
   "call": "WQTK",
   "frequency": 92.7,
   "band": "FM",
   "limbaughAffiliate": 1,
   "limbaughLink": "",
   "fasAffiliate": 0,
   "fasLink": "",
   "market": ""
 },
 {
   "lat": 35.5798,
   "long": -97.5731,
   "live": "",
   "name": "KTOK-1000-AM",
   "call": "KTOK",
   "frequency": 1000,
   "band": "AM",
   "limbaughAffiliate": 1,
   "limbaughLink": "",
   "fasAffiliate": 0,
   "fasLink": "",
   "market": ""
 },
 {
   "lat": 41.7663,
   "long": -78.4566,
   "live": "",
   "name": "WXMT-106.3-FM",
   "call": "WXMT",
   "frequency": 106.3,
   "band": "FM",
   "limbaughAffiliate": 1,
   "limbaughLink": "",
   "fasAffiliate": 0,
   "fasLink": "",
   "market": ""
 },
 {
   "lat": 41.7663,
   "long": -78.4566,
   "live": "",
   "name": "WXMT-106.3-FM",
   "call": "WXMT",
   "frequency": 106.3,
   "band": "FM",
   "limbaughAffiliate": 1,
   "limbaughLink": "",
   "fasAffiliate": 0,
   "fasLink": "",
   "market": ""
 },
 {
   "lat": 41.2079,
   "long": -96.1183,
   "live": "",
   "name": "KFAB-1110-AM",
   "call": "KFAB",
   "frequency": 1110,
   "band": "AM",
   "limbaughAffiliate": 1,
   "limbaughLink": "",
   "fasAffiliate": 0,
   "fasLink": "",
   "market": ""
 },